name,latitude,longitude,type
Notre-Dame,48.851834,2.3500556,ferry_terminal
Unknown,48.8629885,2.2614737,ferry_terminal
Unknown,48.8633659,2.2604736,ferry_terminal
Relais Total Du Pont Aval,48.8346767,2.266146,fuel
Relais des Chaufourniers,48.8801814,2.3707442,fuel
Paris 17 Wagram,48.8832844,2.3022074,post_office
Edmond Rostand,48.8883391,2.3034488,library
Paris École Militaire,48.85562,2.3068506,post_office
Paris Duhesme,48.8950117,2.3447919,post_office
Total,48.8315802,2.3158225,fuel
Unknown,48.8377213,2.3123754,bench
Haltes-garderie municipale,48.8314626,2.3165971,kindergarten
The Village Terrazza,48.8298353,2.3228662,restaurant
Le Severo,48.8319911,2.3245334,restaurant
Parking Alban Satragne - Magenta,48.8758196,2.3557131,parking
Unknown,48.8304021,2.3248398,school
Paris Sentier,48.8672995,2.3458554,post_office
Unknown,48.8730354,2.3533915,parking
Police nationale,48.8510673,2.3670936,police
Parking Hôtel de Ville,48.8569481,2.3497138,parking
Lobau Rivoli,48.8562998,2.3535246,parking_entrance
Synagogue Beit Yossef,48.8569724,2.3588681,place_of_worship
Synagogue,48.8570939,2.35923,place_of_worship
Unknown,48.8706615,2.3508326,post_box
Gaumont Aquaboulevard,48.8307302,2.276181,cinema
Bibliothèque Vaugirard,48.8417871,2.2993261,library
Parking Lecourbe - Mairie du XVème,48.8414636,2.2996634,parking_entrance
Maubert Collège des Bernardins,48.8494609,2.3513201,parking_entrance
Marché Saint-Germain,48.8521302,2.3358217,parking
Ohaley Yaakov,48.8792943,2.3753509,place_of_worship
Lutèce,48.8553332,2.3464366,parking_entrance
Saint-Michel,48.8528687,2.3435246,parking
Parking Quai branly-Tour Eiffel,48.8614418,2.2990188,parking
Sèvres-Babylone,48.8513763,2.3250565,parking
Unknown,48.8393301,2.3500747,fountain
Saint-Sulpice,48.8511618,2.3332375,parking_entrance
Parking Bastille,48.8496512,2.3682504,parking
Bar Hemingway,48.8687856,2.3275106,bar
Uno,48.8618492,2.3434997,restaurant
Juvénile's,48.8663165,2.3370822,bar
La Crypte Polska,48.8672925,2.3255509,restaurant
Le Café Marly,48.8616428,2.3359304,cafe
Mystery Cuisine,48.8659,2.337242,restaurant
Chez Denise,48.8615239,2.3440891,restaurant
La Robe et le Palais,48.8586437,2.3458501,restaurant
Willi's Wine Bar,48.8663449,2.3382902,bar
Macéo,48.8663903,2.3380844,restaurant
Le Petit Marché,48.8572887,2.3660498,restaurant
Café des Musées,48.8580708,2.3643313,restaurant
Les Arts et Métiers,48.865451,2.3553243,cafe
Camille,48.8577772,2.3607273,restaurant
Les Enfants Rouges,48.8630297,2.3612527,restaurant
404,48.864464,2.3543053,restaurant
Paris Gobelins,48.8357948,2.3528766,post_office
Parking Aquaboulevard,48.8327885,2.2772902,parking_entrance
Paris Odéon / Beaux-Arts,48.8522942,2.3407175,post_office
Parking Gaité-Montparnasse,48.8376583,2.3201789,parking
Onhà Dô,48.8483768,2.3739692,restaurant
Paris Pernety / Plaisance,48.8346222,2.3173283,post_office
Paris Denfert-Rochereau,48.8319392,2.3309271,post_office
Rennes Montparnasse,48.8450213,2.3253519,parking
Paris Littré,48.844537,2.3242619,post_office
Paris Volontaires / François Bonvin,48.8414313,2.3069539,post_office
Unknown,48.8396496,2.3011079,post_box
Unknown,48.8381761,2.3022128,post_office
Lémoni Café,48.8648091,2.3411291,restaurant
Rani Mahal,48.8687993,2.3373273,restaurant
O' Scià,48.8648222,2.3475072,restaurant
Café Moderne,48.8689038,2.3422059,restaurant
Harry's Bar,48.8692089,2.3321714,bar
Le Café Noir,48.8663473,2.3443206,cafe
Holy Ramen,48.860997,2.3544354,restaurant
Le Loir dans la Théière,48.8562335,2.3610458,cafe
La Perla,48.8557588,2.3561398,restaurant
L'Excuse,48.8533876,2.3620076,restaurant
Pizzou,48.8575825,2.3562566,restaurant
Chez Marianne,48.8577309,2.3586364,restaurant
Terrasse Sainte-Catherine,48.85559,2.3628253,restaurant
Mariage Frères,48.8577165,2.3565609,cafe
The Auld Alliance,48.8553135,2.3591057,pub
Café des Phares,48.8536169,2.368253,cafe
Le Lutétia Île Saint-Louis,48.8532987,2.3540953,restaurant
Lizard Lounge,48.8573733,2.3562835,pub
Au Petit Fer à Cheval,48.8574347,2.3576107,restaurant
Stolly's,48.8563917,2.3573515,pub
Bibliothèque Publique d'Information,48.8608795,2.3526163,library
The Blind Tiger,48.8402192,2.3502633,bar
Jardin des Pâtes,48.8437435,2.3544856,restaurant
La Tour d'Argent,48.84983,2.3549148,restaurant
Kusksi Original Couscous,48.8449458,2.3486915,restaurant
Le Grand Café Rouge,48.852612,2.3467113,cafe
Drunken Bunny,48.8429884,2.3495493,pub
Le Vieux Chêne,48.8423393,2.3498473,pub
Tata Monique,48.8474659,2.3471555,pub
Paris Desnouettes,48.8355977,2.2859594,post_office
CityPharma,48.8527413,2.3333559,pharmacy
Desi Road,48.8556694,2.3399888,restaurant
Brasserie Lipp,48.8537528,2.3324105,restaurant
Metou,48.8493501,2.3391528,restaurant
Silencio des Prés,48.8546811,2.3332029,restaurant
Polidor,48.8498182,2.3401339,restaurant
La Grivoiserie,48.8441789,2.3299201,restaurant
Le Trait D'Union,48.8468341,2.3265156,restaurant
O'Tacos,48.8442685,2.3310313,fast_food
Le 10,48.8510774,2.3385693,bar
Les Deux Magots,48.854069,2.3330634,cafe
Café de Flore,48.8541444,2.3326307,cafe
Buddha-Bar Paris,48.8680799,2.3215688,restaurant
Qasim,48.8710439,2.3094204,restaurant
Diep,48.8695157,2.3030346,restaurant
L'Olympia,48.8702443,2.3283595,theatre
I Golosi,48.873249,2.3415929,wine_bar
Paris Gare-de-Lyon,48.8460989,2.3742452,post_office
Pharmacie de la Rapée,48.8467924,2.3697076,pharmacy
Hanoi Cà Phê Opéra,48.8714582,2.3357136,bar
Bouillon Chartier,48.8719858,2.3427378,restaurant
Le Café Zéphyr,48.8718728,2.3418493,restaurant
Julien,48.8705409,2.3532213,restaurant
Le Royal Est,48.8755247,2.3590436,restaurant
Bouillon Chartier,48.8759117,2.3587708,restaurant
Paris Saint-Germain-des-Prés / Médicis,48.852667,2.3323656,post_office
Paris Médicis,48.8494031,2.3370695,post_office
Lyon Diderot,48.8445885,2.3722564,parking
Parc Paris-Lyon,48.8439502,2.3728916,parking
Clown-Bar,48.8636232,2.3671745,restaurant
Biondi,48.8638211,2.3670738,restaurant
Rang,48.8680028,2.3732066,restaurant
Le Troisième Bureau,48.8656744,2.3707975,restaurant
Cannibale Café,48.86841,2.3793255,restaurant
Avé Maria,48.8644844,2.3730277,restaurant
Louloute,48.8534002,2.3787862,bar
Le Café des Anges,48.8554359,2.3744522,restaurant
Le Cyrano,48.8561021,2.3751898,restaurant
Brasserie Ménilmontant,48.8667776,2.3826288,cafe
Justine,48.8656774,2.3778866,restaurant
La Mercerie,48.8657437,2.3782276,bar
Le Scherkhan,48.8664143,2.3810502,cafe
Les marcheurs de planète,48.8567799,2.3773631,wine_bar
Paris Moulin de la Pointe / Massena,48.8249137,2.3571341,post_office
Paris Butte aux Cailles,48.8260261,2.3459422,post_office
Le Voltaire,48.8651691,2.3673694,restaurant
Sinorama,48.8263633,2.3601703,restaurant
Phở Banh Cuon 14,48.8263649,2.3595297,restaurant
Le Temps des Cerises,48.8278771,2.3505246,restaurant
Atelier 58,48.8350004,2.3270301,restaurant
Papa yoyo,48.8332286,2.315712,restaurant
Tapovan Paris,48.8448821,2.2821525,yoga_studio
Mian Mian,48.8413291,2.2990993,restaurant
Perlamatta,48.8407836,2.2882769,restaurant
Andia,48.8581109,2.27222,restaurant
Frog XVI,48.8646895,2.2880988,pub
The Canadian Embassy Pub,48.8802602,2.2852551,pub
Marché Poncelet,48.8791573,2.2968683,marketplace
Moulin Rouge,48.8841094,2.3323564,theatre
La Pétaudière,48.8869322,2.3399586,restaurant
Médiathèque Jean-Pierre Melville,48.8267459,2.3664051,library
Bar nouveau,48.8614833,2.357569,pub
Sookie,48.8615832,2.3650808,cafe
GrandCœur,48.859616,2.3534984,restaurant
Le Café Populaire,48.8470403,2.3693549,cafe
Marcello,48.8523273,2.3350061,restaurant
Café Jacquemart-André,48.8755021,2.3103942,restaurant
Linette,48.8600296,2.3006336,restaurant
Au Pied de Fouet,48.8516415,2.3185465,restaurant
Chez Germaine,48.8482525,2.3194882,restaurant
Chez l'Ami Jean,48.8604171,2.305956,restaurant
L'Astrance,48.8650879,2.2899274,restaurant
Unknown,48.8421585,2.3029483,post_box
Unknown,48.8405964,2.3041613,post_box
Unknown,48.8769705,2.292016,post_box
Fair Play Sport,48.853674,2.4053556,dojo
Yotaro sushi,48.8523799,2.4036853,restaurant
Unknown,48.8559899,2.3159343,post_box
Unknown,48.8553935,2.318422,post_box
Chapelle Saint-Vincent de Paul,48.8488472,2.3218448,place_of_worship
Doppio,48.8795968,2.3519355,restaurant
Unknown,48.8522625,2.3480342,post_box
Unknown,48.8474544,2.3181308,post_box
Unknown,48.8434009,2.305121,post_box
La Poste Paris-Porte d'Orléans,48.8227009,2.3260541,post_office
Paris Massena,48.8189682,2.3612271,post_office
Paris Crozatier,48.8469142,2.3813987,post_office
Unknown,48.8464198,2.3775114,post_box
Police nationale,48.8442218,2.3811783,police
Unknown,48.8444155,2.3816924,post_box
Unknown,48.8469709,2.3171693,post_box
Unknown,48.850407,2.3475208,post_box
Unknown,48.8499497,2.3494344,post_box
Unknown,48.8508803,2.3254696,post_box
Unknown,48.852227,2.3302639,post_box
Unknown,48.8469113,2.3137238,post_box
Unknown,48.8454808,2.3120037,post_box
Unknown,48.8444526,2.3181339,post_box
Unknown,48.8479947,2.3295614,post_box
Unknown,48.8484359,2.3427158,post_box
Unknown,48.8517684,2.3387959,post_box
Unknown,48.8507495,2.3326789,post_box
Unknown,48.8455266,2.301908,toilets
Unknown,48.8498328,2.3230579,toilets
Unknown,48.8513839,2.3427887,toilets
La Poste,48.8842024,2.3388617,post_office
Unknown,48.8475761,2.3025411,post_box
Unknown,48.856067,2.3097025,post_box
Unknown,48.8432625,2.3001667,post_box
Unknown,48.8417476,2.2994603,post_box
Unknown,48.84106,2.2969274,post_box
Esso,48.8391995,2.2925362,fuel
Unknown,48.8385197,2.28963,post_box
Unknown,48.8310773,2.2770656,parking
Unknown,48.8286533,2.2736753,post_box
Unknown,48.8373276,2.2964697,post_box
Unknown,48.8371799,2.296796,toilets
Unknown,48.8360161,2.2934175,toilets
Unknown,48.8395472,2.3014345,post_box
Pathé Parnasse,48.8430732,2.3244918,cinema
UGC Rotonde,48.8424534,2.3289276,cinema
UGC Montparnasse,48.8434993,2.3257407,cinema
Gaumont Montparnos,48.842029,2.3243639,cinema
Unknown,48.8420623,2.2966075,fountain
Paris Saint-Lambert,48.8448696,2.2974529,post_office
Unknown,48.8395778,2.3094998,post_box
Unknown,48.8430566,2.3069487,post_box
Pharmacie Lecourbe Cambronne,48.8427695,2.3027722,pharmacy
Pharmacie Kries,48.8416259,2.3030314,pharmacy
Au Général Beuret,48.8416889,2.3031557,cafe
Le Wallace,48.8420492,2.3029211,bar
Unknown,48.8550692,2.3535894,post_box
Unknown,48.856892,2.3534398,post_box
Unknown,48.8441911,2.3082755,post_box
Les Artisans,48.8428811,2.3031391,cafe
Unknown,48.8473525,2.3160099,post_box
Dandelion,48.8544589,2.4006544,restaurant
The Financier,48.8425946,2.3237083,bar
Le Miramar,48.8432872,2.3245561,cinema
Parc Beaubourg,48.8616604,2.3534664,parking
Lourmel,48.8390914,2.2825626,toilets
Unknown,48.8391053,2.2826834,post_box
Unknown,48.8532392,2.3117341,post_box
Unknown,48.8446716,2.3110739,toilets
Saint-Germain des Prés,48.8541427,2.331432,parking
Bourdon - Pont Morland,48.8477077,2.3659262,bicycle_rental
Unknown,48.8480731,2.3678319,post_box
Unknown,48.8537482,2.3105482,post_box
Unknown,48.853661,2.3238906,post_box
Unknown,48.8500899,2.3482015,post_box
Garage Sully,48.8502593,2.3620655,parking
Garage Sully,48.8501676,2.3621707,fuel
Cinéma Chaplin,48.8430793,2.2985273,cinema
Unknown,48.8578208,2.3101864,post_box
Unknown,48.8578708,2.3103454,fountain
Total,48.859328,2.3146561,fuel
Unknown,48.8585003,2.3229386,post_box
Unknown,48.8506289,2.3455225,post_box
Le Nouvel Institut,48.8492048,2.3556646,cafe
Unknown,48.8452732,2.3692535,toilets
Unknown,48.8330905,2.3364353,post_box
Bibliothèque Buffon,48.8424666,2.3618413,library
Unknown,48.836146,2.3103122,post_box
Unknown,48.8364203,2.3067894,post_box
Unknown,48.8374026,2.3058911,post_box
Unknown,48.8428588,2.2978161,toilets
Unknown,48.8484351,2.3283496,post_box
Unknown,48.8506968,2.3304239,post_box
Unknown,48.851333,2.3624841,post_box
Unknown,48.8452225,2.3735396,post_box
Unknown,48.8447936,2.373569,post_box
Unknown,48.8569567,2.3216809,post_box
Unknown,48.8558794,2.320615,post_box
Unknown,48.8543421,2.3306133,post_box
Bac-Montalembert,48.8566284,2.3271644,parking_entrance
Unknown,48.8406162,2.3547791,parking
Unknown,48.8507842,2.3284127,post_box
Unknown,48.8500011,2.3270079,post_box
Unknown,48.8477691,2.32331,post_box
Pharmacie de l'Assemblée,48.8598508,2.3183041,pharmacy
Unknown,48.8597204,2.3183152,post_box
Le Cristal,48.845782,2.3098769,cafe
Unknown,48.8473352,2.3109589,toilets
Unknown,48.8476453,2.3135075,post_box
Unknown,48.8500676,2.3175242,post_box
Pharmacie de Varenne,48.854037,2.324019,pharmacy
Le Babylone,48.851795,2.3250816,cafe
Unknown,48.8516214,2.3251723,toilets
Unknown,48.8441669,2.3200259,post_box
Unknown,48.8383169,2.3484363,post_box
Unknown,48.8544507,2.2963604,post_box
Paris Champ de Mars,48.8586271,2.3007824,post_office
BP,48.8609726,2.2828299,fuel
La Poste Paris Georges Brassens,48.8296368,2.2975779,post_office
Le Petit Littré,48.8450378,2.3240399,restaurant
Forum Café,48.8460429,2.3238386,pub
Paris Bourse,48.869756,2.3414883,post_office
Gildas Delamer,48.8395987,2.2669254,restaurant
Kléber Trocadero,48.8661306,2.2897626,parking_entrance
Kléber Trocadero,48.8664558,2.2899974,parking_entrance
SG,48.8671055,2.3471442,bank
Unknown,48.8451704,2.3284896,post_box
Unknown,48.8666194,2.2726102,ticket_validator
Unknown,48.8854925,2.3294707,parking_entrance
Suraj,48.827448,2.3148336,restaurant
Café du Passage,48.8524729,2.373815,cafe
L'Ancienne Menuiserie,48.8673444,2.3739608,restaurant
Kaskad' Café,48.8827101,2.3828955,bar
Lou Pascalou,48.8662492,2.3855839,bar
Aux Tables du Père Lachaise,48.8632191,2.3875763,restaurant
Bocamexa,48.8570725,2.3560078,restaurant
Le Moulin à Café,48.8334851,2.3198808,restaurant
Le Muguet,48.8527753,2.4059315,restaurant
SAMU Social de Paris,48.844546,2.4150005,social_facility
La Popotière,48.8551966,2.4016334,restaurant
Sohna Punjab,48.8540343,2.4058858,restaurant
Le Cardinal,48.8373251,2.2574534,restaurant
McDonald's,48.8383152,2.2578229,fast_food
Unknown,48.8381563,2.257822,post_box
Les Fontaines,48.8378504,2.2579307,restaurant
Société Générale,48.8379602,2.2583959,bank
Paris Feuillantines,48.8412969,2.3438267,post_office
Unknown,48.8453785,2.2921763,toilets
Unknown,48.846001,2.2950841,post_box
Unknown,48.8553049,2.4152098,toilets
Paris Pyrénées,48.8686674,2.3958418,post_office
Paris Télégraphe,48.872894,2.3994035,post_office
Unknown,48.8725105,2.3979845,post_box
McDonald's,48.870959,2.3477192,fast_food
Centre dentaire Dentylis Vaugirard - Convention,48.841012,2.3066005,dentist
Unknown,48.8297742,2.3340925,post_box
Unknown,48.8374403,2.2720831,drinking_water
La Cordonnerie,48.8652231,2.3505935,bar
Petites Écuries - Faubourg Poissonnière,48.8739628,2.3483713,bicycle_rental
Paris Drouot,48.8742245,2.3396574,post_office
Le Syphax,48.8761363,2.3377084,bar
Le Nemrod,48.8488333,2.3253506,restaurant
La Banque Postale,48.8585778,2.3007057,atm
Crédit du Nord,48.8579137,2.300566,bank
Unknown,48.8386496,2.3228171,post_box
La Grille Montorgueil,48.8647212,2.3469127,restaurant
Le Plomb du Cantal,48.8693462,2.3552659,restaurant
L’Arrosoir,48.8461619,2.378132,restaurant
Mama Nissa,48.8657876,2.3453001,restaurant
Unknown,48.874183,2.3379248,bicycle_parking
Unknown,48.8828014,2.3593396,bicycle_parking
Unknown,48.8428024,2.3024212,recycling
Unknown,48.8331642,2.3445206,post_box
Vadrouille,48.8773406,2.3373832,restaurant
Unknown,48.856618,2.4024321,post_box
Unknown,48.8561996,2.4042235,dentist
Paris Reuilly,48.8463962,2.3870738,post_office
Unknown,48.8303058,2.3456564,post_box
Le Voltaire,48.8591165,2.3302244,restaurant
Kokohana,48.8697776,2.3105917,restaurant
La Table du Lancaster,48.8722601,2.3035046,restaurant
Spoon,48.8686679,2.3066263,restaurant
Unknown,48.8582058,2.3498024,toilets
Unknown,48.8535124,2.3349428,recycling
Unknown,48.8534242,2.3334679,post_box
Unknown,48.8496184,2.352169,recycling
Unknown,48.873137,2.2834717,post_box
Unknown,48.849999,2.3688118,post_box
Pharmacie du Palais Royal,48.8622352,2.3395906,pharmacy
Pharmacie du Louvre,48.8621947,2.3416613,pharmacy
Le Dix restaurant,48.8671682,2.3656836,restaurant
Léon de Bruxelles,48.8667526,2.3657202,restaurant
Mon Coco,48.866667,2.3656514,restaurant
Pharmacie de la Place République,48.866451,2.3643006,pharmacy
Café République,48.8667246,2.3638798,cafe
Bong,48.8666561,2.3663425,restaurant
Toucan Café,48.8665896,2.3667125,cafe
Plein Soleil,48.8656439,2.3744745,restaurant
Centre médical République,48.8637841,2.3814177,doctors
Mass Works,48.8630511,2.3852954,cafe
Atelier 103,48.8632455,2.3860891,pub
Pharmacie de la Place Métivier,48.8633561,2.3882344,pharmacy
Batistou,48.8626607,2.3872306,cafe
Le Murger,48.8786905,2.3756006,cafe
Unknown,48.8785863,2.3753228,post_box
Le Navigateur,48.878014,2.3739566,bar
Pharmacie de l'Avenir,48.8782025,2.373445,pharmacy
La Forge,48.8782429,2.3737667,cafe
CCF,48.8774625,2.3700498,bank
Café des Dames,48.8781803,2.371016,cafe
Pharmacie des Écoles,48.877532,2.3738783,pharmacy
Café Chéri(e),48.874105,2.3752878,bar
Le Dauphin,48.8812032,2.3729855,cafe
McDonald's,48.8822632,2.3705591,fast_food
Unknown,48.8784383,2.3739531,toilets
Les Frangins,48.8783507,2.3725782,cafe
Le Mathurin,48.8780494,2.3721369,restaurant
25° Est,48.883838,2.3707362,bar
Fontaine Wallace,48.8478893,2.3992736,drinking_water
Police nationale,48.8426264,2.3901753,police
Unknown,48.8557127,2.2623788,post_box
Unknown,48.8526536,2.2624339,post_box
Unknown,48.8514697,2.2610951,post_box
Fontaine Wallace,48.8480669,2.2646701,drinking_water
Unknown,48.8487159,2.259399,post_box
Unknown,48.8500861,2.2597675,post_box
Unknown,48.8752764,2.2959457,post_box
Unknown,48.8745801,2.2934897,post_box
Unknown,48.8533409,2.3262965,recycling
Unknown,48.8683584,2.2773459,post_box
Direction centrale de la Sécurité publique,48.8675566,2.2753192,police
Unknown,48.8604104,2.274026,post_box
Unknown,48.8580931,2.2740131,post_box
Unknown,48.877342,2.2992163,post_box
Unknown,48.8778327,2.2985481,post_box
Unknown,48.8791389,2.2969893,post_box
Unknown,48.8830452,2.3027346,post_box
Unknown,48.885092,2.303148,post_box
Unknown,48.8629128,2.2760901,post_box
Unknown,48.8422582,2.2902376,post_box
Paris Boucicaut / Citroën,48.8414439,2.2869114,post_office
The Gazoline Stand,48.8563472,2.3151704,fuel
Unknown,48.8757467,2.2894169,post_box
Paris Grande Armée,48.8767699,2.2867318,post_office
Unknown,48.8766598,2.2867783,post_box
Unknown,48.8773156,2.2846583,post_box
Unknown,48.8759061,2.2868806,post_box
Unknown,48.8754191,2.2890421,post_box
Unknown,48.8798813,2.3403438,post_box
Unknown,48.8821984,2.3397918,post_box
Unknown,48.8403181,2.2957829,post_box
Unknown,48.8806821,2.308897,post_box
Unknown,48.8809461,2.3120004,post_box
Unknown,48.8825195,2.3118159,post_box
Le Roi du Pot-au-Feu,48.8721672,2.326644,restaurant
Au Banquier,48.8360044,2.3574926,restaurant
Sala Thaï,48.8237611,2.3626525,restaurant
Unknown,48.8624298,2.2734952,post_box
Unknown,48.8802563,2.2982452,post_office
Unknown,48.8832589,2.3069855,post_box
Unknown,48.8840083,2.304702,post_box
Unknown,48.8830046,2.3089682,post_box
Unknown,48.885274,2.3075922,post_box
Unknown,48.881353,2.3153721,post_box
Unknown,48.8533749,2.2712377,post_box
Unknown,48.8551999,2.2699689,post_box
La Banque Postale,48.8294672,2.3084779,bank
LCL,48.8318705,2.3145008,bank
Bibliothèque municipale Aimé Césaire,48.8312882,2.3115582,library
Paris Charonne,48.8587218,2.402888,post_office
Paris Buzenval,48.8521928,2.4013589,post_office
Le Belushi's Bar Canal,48.8884858,2.3790155,bar
Unknown,48.8852571,2.2966894,post_box
Unknown,48.8856631,2.2906532,post_box
Unknown,48.887825,2.2995926,post_box
Unknown,48.8869565,2.3009488,post_box
Unknown,48.8887365,2.3008658,post_box
Unknown,48.8908207,2.3050937,post_box
Unknown,48.8869664,2.3044835,post_box
Unknown,48.8567077,2.2762212,post_box
Unknown,48.8541107,2.2754437,post_box
Unknown,48.8513172,2.2780775,post_box
Maison de la Radio,48.8512657,2.2781107,taxi
Unknown,48.8524943,2.2680823,post_box
Unknown,48.8489205,2.2712212,post_box
Unknown,48.8492542,2.2668856,post_box
Unknown,48.8823672,2.320834,post_box
Unknown,48.8829037,2.3179094,post_box
Unknown,48.8840297,2.3176233,post_box
Unknown,48.8853787,2.3160641,post_box
Unknown,48.8872976,2.3135386,post_box
Unknown,48.8861082,2.3101949,post_box
Unknown,48.8882019,2.3102585,post_box
Unknown,48.8865358,2.3185716,post_box
Unknown,48.8894025,2.3185279,post_box
Unknown,48.8881835,2.3210599,post_box
Unknown,48.8553485,2.2722254,post_box
Unknown,48.8622843,2.2705354,post_box
Unknown,48.8637349,2.2693663,post_box
Unknown,48.8434181,2.299769,recycling
Sweet KT,48.8477383,2.3484392,restaurant
Invitez Vous chez Nous,48.8415272,2.3511512,restaurant
La P'tite Louise,48.8718873,2.3570864,restaurant
Chez Gladines,48.8288139,2.3506397,restaurant
Unknown,48.8549919,2.26561,post_box
Unknown,48.8454411,2.2589881,post_box
Unknown,48.8393042,2.2615454,post_box
Unknown,48.8380019,2.2580168,post_box
Unknown,48.8665986,2.2718332,post_box
Jupi,48.8844355,2.3243334,restaurant
Lush,48.8851266,2.3251655,bar
Giulia,48.8881228,2.3212456,restaurant
Le Bar Belge,48.8924314,2.3270614,bar
Les Caves Populaires,48.8847758,2.3246274,bar
L'Abadache,48.8886141,2.3198123,restaurant
Unknown,48.8474299,2.2673164,post_box
Unknown,48.841482,2.266777,post_box
Unknown,48.840574,2.2650451,post_box
Unknown,48.8392342,2.2648836,post_box
Just BE,48.8879876,2.3341073,restaurant
Môm'artre,48.8889497,2.3316058,arts_centre
Nawab,48.894047,2.3341991,restaurant
Crédit Agricole,48.8689224,2.333535,bank
Unknown,48.8587296,2.2848368,post_box
Unknown,48.837187,2.2589751,post_box
Café Biergit,48.8835953,2.3233585,cafe
La Cuisine de Philippe,48.8492934,2.3349249,restaurant
Unknown,48.8504191,2.406308,recycling
Matsuyama,48.841429,2.2990451,restaurant
Unknown,48.8396585,2.3019622,toilets
Caisse d'Épargne,48.8395609,2.3021892,bank
Oil France,48.8611046,2.3413657,fuel
Unknown,48.8610917,2.3414339,parking
Le Refuge des Fondus,48.8844671,2.3410906,restaurant
Juicy Pop,48.8717809,2.3937884,restaurant
Cafézoïde,48.8876134,2.3796187,cafe
Unknown,48.8465498,2.284777,toilets
McDonald's,48.8469061,2.2850171,fast_food
Place Charles Michels,48.8468228,2.2853345,taxi
Unknown,48.8469227,2.2856922,recycling
La Goguette,48.8580287,2.3999426,nightclub
Le Gambetta,48.8595367,2.4030888,bar
Brasserie Tabac Saint-Germain,48.8600086,2.4039364,cafe
Le Lion Indomptable,48.8566933,2.4002542,restaurant
Unknown,48.8387954,2.3034409,post_box
Studio des Islettes,48.8844316,2.350683,arts_centre
Unknown,48.8491445,2.3035292,toilets
Unknown,48.8684212,2.2932783,post_box
Unknown,48.8609633,2.3016431,post_box
Café de l'Alma,48.8609068,2.3015143,cafe
Unknown,48.8604607,2.298845,post_box
Unknown,48.8543015,2.3050953,toilets
Unknown,48.8472445,2.3015767,recycling
Unknown,48.8455718,2.3018823,recycling
Unknown,48.8568303,2.2822937,post_box
Unknown,48.8578348,2.2780381,post_box
Pharmacie Charles Michels,48.8468474,2.2861719,pharmacy
Unknown,48.8470802,2.2954913,post_box
Unknown,48.846987,2.2957572,recycling
Shell,48.8475898,2.3031985,fuel
Unknown,48.8521565,2.3266646,recycling
Unknown,48.851521,2.3266631,recycling
Le Diplomate,48.88924,2.3259864,cafe
Unknown,48.8752707,2.3164208,post_box
Unknown,48.8777916,2.3180541,post_box
Unknown,48.8765765,2.3175668,post_box
Unknown,48.8766144,2.3130551,post_box
Unknown,48.8795914,2.3183667,post_box
Unknown,48.8818486,2.3225844,post_box
Café Convention,48.837093,2.2964517,cafe
Grande Pharmacie Hahnemann,48.8370582,2.2963339,pharmacy
Dupont Café,48.8372161,2.2960355,cafe
LCL,48.8375207,2.2967192,bank
Société Générale,48.8375266,2.2960585,bank
Unknown,48.8365442,2.2948691,recycling
Unknown,48.8380935,2.3056593,recycling
Unknown,48.8403553,2.3038378,recycling
Unknown,48.8524108,2.3414355,recycling
Café Jussieu,48.8456039,2.3547969,restaurant
L'Inévitable,48.8454309,2.3548324,pub
Unknown,48.8445537,2.287172,post_box
Unknown,48.848929,2.298118,post_box
Unknown,48.8448593,2.2975257,post_box
Police nationale,48.854231,2.268805,police
Unknown,48.844937,2.2896434,post_box
Paris Beaugrenelle / Lourmel,48.8466999,2.2845048,post_office
Unknown,48.8489881,2.3391,recycling
Unknown,48.8643579,2.3347495,recycling
Unknown,48.8728127,2.3145756,post_box
Unknown,48.8727355,2.3082352,post_box
Unknown,48.8736476,2.3204627,post_box
Madeleine Tronchet,48.870624,2.3242488,parking
Paris Madeleine,48.8724891,2.3267639,post_office
Unknown,48.8722561,2.3259576,post_box
Berri Ponthieu,48.8722447,2.3050374,parking_entrance
Unknown,48.8712783,2.3155587,post_box
Unknown,48.8446408,2.2799328,post_box
Avia,48.8464653,2.2801018,fuel
Paris Place Clichy,48.8835954,2.3291657,post_office
Garage Mansart,48.8820013,2.3330275,parking
Maison Sauvage,48.8536478,2.3380576,cafe
Crédit Agricole,48.8276825,2.3271004,bank
Crédit Mutuel,48.8290423,2.3331547,atm
Le Comptoir du Relais,48.8519626,2.3388319,pub
Café Lola,48.8536059,2.338277,cafe
Le Buci,48.8538386,2.338474,cafe
Bar du Marché,48.8539544,2.3370609,cafe
Café Mabillon,48.8533401,2.3357278,cafe
Les Sourires de Dante,48.8300397,2.331099,restaurant
Unknown,48.8332389,2.3329284,taxi
Odéon,48.8526288,2.3385336,taxi
Pub Gay-Lussac,48.841516,2.343644,cafe
Parc Méditérannée,48.8450514,2.3758605,parking
Parking Chalon,48.8442879,2.3767814,parking
Unknown,48.8538018,2.3337187,post_box
Paris 18 Montmartre,48.8923205,2.341663,post_office
Mairie du 18ème,48.8925057,2.3450965,taxi
Taj Mahal,48.8374507,2.3523064,restaurant
Parc Vincent Auriol - Bibliothèque,48.8351429,2.3731146,parking
Unknown,48.8328185,2.3711192,motorcycle_parking
The Lions,48.8324164,2.371249,pub
Unknown,48.8322455,2.3717062,post_box
Unknown,48.8303365,2.3731011,post_box
Unknown,48.8296405,2.3757455,post_box
Unknown,48.8879287,2.2889555,post_box
Unknown,48.8889777,2.2934661,post_box
Unknown,48.8901934,2.2961027,post_box
Sept Parnassiens,48.8424152,2.3276286,cinema
Parking Montparnasse Raspail,48.8413742,2.331055,parking_entrance
TotalEnergies,48.9003252,2.3734463,fuel
Unknown,48.8319463,2.3583201,post_box
McDonald's,48.8579329,2.351487,fast_food
Unknown,48.851505,2.3430786,taxi
Société Générale,48.8500896,2.3428486,bank
Le Champo,48.8499668,2.3431463,cinema
Reflet Médicis,48.8497506,2.3430251,cinema
Le Reflet,48.8497449,2.3428033,bar
Unknown,48.84819,2.3416831,atm
Panthéon,48.847329,2.3412959,taxi
Unknown,48.846128,2.340049,toilets
McDonald's,48.8307218,2.3566884,fast_food
KFC,48.8307708,2.3567939,fast_food
Bibliothèque Italie,48.8308701,2.3570791,library
BNP Paribas,48.8327092,2.362562,bank
Pharmacie Bichet,48.8317439,2.3618766,pharmacy
Le Pick Clops,48.8567082,2.357013,cafe
UGC Gobelins,48.8328449,2.3541908,cinema
Pathé Les Fauvettes,48.8335351,2.3537862,cinema
CCF,48.830478,2.3562573,bank
Unknown,48.8312038,2.356553,taxi
La Manufacture,48.8333136,2.3539211,cafe
Le Sud,48.8336129,2.3544305,cafe
BNP Paribas,48.832605,2.3544168,bank
Unknown,48.8323227,2.3581872,bicycle_parking
Unknown,48.8921108,2.3751961,recycling
Paris Les Tourelles,48.8770457,2.405094,post_office
Unknown,48.8770622,2.4052339,atm
Unknown,48.8527942,2.4060014,post_box
Van An,48.833417,2.355449,restaurant
Café Panis,48.8522009,2.3483718,cafe
MK2 Odéon,48.8524157,2.3382646,cinema
Au Chien qui Fume,48.8457103,2.3192202,restaurant
Caféothèque de Paris,48.8544379,2.3558365,cafe
Thaiger,48.8523496,2.3444308,restaurant
Tribeca,48.856812,2.3062305,restaurant
Société Générale,48.8530182,2.4058632,bank
Le Terminus Nation,48.848497,2.399551,restaurant
Le Dalou,48.8478383,2.3975522,restaurant
Puzzle,48.8416794,2.3413818,bar
Guenmaï,48.8540277,2.3358692,restaurant
Maison Européenne de la Photographie,48.8551205,2.3589562,arts_centre
Krishna Bhavan,48.8828817,2.3596543,restaurant
Cellar,48.8641427,2.3676774,restaurant
Société Générale,48.8554073,2.3268543,bank
Police nationale,48.8503222,2.3325549,police
La Fauvette,48.8682662,2.3721118,cafe
Pharmacie Saint Maur Saint-Louis,48.8718988,2.3720288,pharmacy
Crédit Agricole,48.8697681,2.3709319,bank
Unknown,48.8704478,2.3893858,bicycle_parking
BNP Paribas,48.8613085,2.3773442,bank
Société Générale,48.8612386,2.3747133,bank
BRED,48.8643658,2.3783523,bank
Unknown,48.8546172,2.2767542,post_box
BNP Paribas,48.8535631,2.3335139,bank
Banque Populaire,48.8416103,2.3228315,bank
Pharmacie Edgar Quinet,48.8412432,2.3252996,pharmacy
Le Point Ephémère,48.8814118,2.3684839,arts_centre
Paris Sambre et Meuse,48.8742965,2.3737133,post_office
BNP Paribas,48.8706166,2.3708239,bank
Unknown,48.8695454,2.382062,post_box
Unknown,48.8695442,2.3822001,bicycle_parking
Unknown,48.8701146,2.3842444,recycling
Unknown,48.870221,2.3848877,bicycle_parking
Unknown,48.8703437,2.3866812,recycling
Panda Fast Food,48.8795777,2.3630134,fast_food
Unknown,48.8715131,2.3862265,post_box
Unknown,48.8715476,2.3873059,recycling
Unknown,48.8727022,2.3841771,recycling
Unknown,48.8690009,2.3856776,recycling
Unknown,48.8692732,2.3856895,bicycle_parking
Société Générale,48.8778698,2.3509743,bank
BNP Paribas,48.852947,2.3434116,bank
Pause Café,48.8534134,2.3767225,cafe
Unknown,48.8732645,2.3826127,bicycle_parking
Unknown,48.87159,2.3812711,bicycle_parking
Unknown,48.8701639,2.3795547,bicycle_parking
Grande pharmacie de Belleville,48.8701219,2.3796681,pharmacy
Unknown,48.8702919,2.3816397,bicycle_parking
Unknown,48.8725998,2.3785841,recycling
Unknown,48.8690226,2.3828779,motorcycle_parking
Pharmacie 43,48.8689687,2.3854808,pharmacy
Unknown,48.8673692,2.3831,recycling
Unknown,48.8674758,2.3831632,bicycle_parking
Unknown,48.8681179,2.385662,bicycle_parking
Bourse,48.8694555,2.3406786,parking
Little Temple Bar,48.8522494,2.3344273,pub
Aux Bons Amis,48.8742283,2.3755427,restaurant
Unknown,48.8683277,2.3500955,recycling
Unknown,48.8810365,2.354048,taxi
Unknown,48.8692039,2.3485759,bicycle_parking
Unknown,48.8702235,2.3490322,bicycle_parking
Banque de France,48.8535279,2.3681762,bank
Le Tournesol,48.8404976,2.3244044,restaurant
Aprium Pharmacie Montparnasse,48.8431992,2.3244536,pharmacy
Unknown,48.8949604,2.3648581,recycling
Unknown,48.8489462,2.3729231,recycling
Unknown,48.8482704,2.3714315,recycling
Unknown,48.8484651,2.3724452,post_box
Unknown,48.8470432,2.3752286,recycling
Unknown,48.8470892,2.4158499,post_box
La Place Verte,48.8659333,2.3775773,bar
Unknown,48.8462106,2.4156776,post_box
Unknown,48.8818854,2.3342983,bicycle_parking
La Criée,48.8882137,2.3785003,restaurant
Kouto,48.872313,2.3492571,bar
Unknown,48.8802443,2.3966361,recycling
Pharmacie Maraichers,48.8533987,2.406081,pharmacy
Pharmacie Centrale des Pyrénées,48.8573349,2.4038534,pharmacy
Le Théâtre,48.8491569,2.2872385,restaurant
Paris Jeanne D'arc,48.8305048,2.3677879,post_office
Unknown,48.8405017,2.3540262,bicycle_parking
Unknown,48.8406418,2.3541771,recycling
Unknown,48.8460321,2.3758627,recycling
Unknown,48.8460309,2.3745805,waste_basket
Unknown,48.8457967,2.3709748,bicycle_parking
Unknown,48.850694,2.3903108,bicycle_parking
Paris Sainte-Marguerite,48.8518448,2.389095,post_office
École maternelle publique Souzy,48.8517486,2.3881145,school
École Primaire,48.8515667,2.3867566,school
Unknown,48.8523206,2.3894881,post_box
Citroën Cévennes,48.8388357,2.2765269,parking
Romain Rolland,48.8203312,2.3230121,bicycle_rental
Unknown,48.8321832,2.3411866,motorcycle_parking
Unknown,48.8387859,2.3504803,fountain
Unknown,48.8398577,2.3474231,recycling
Parking Charléty Coubertin,48.817687,2.3444409,parking
CIC,48.8468363,2.2851518,atm
Crédit Mutuel,48.8488408,2.2872412,bank
Unknown,48.8460504,2.3085941,recycling
Unknown,48.8525976,2.3324258,recycling
Unknown,48.839906,2.2738946,parking
Unknown,48.8477278,2.3675827,recycling
Espace tri Poterne des Peupliers,48.816745,2.3551427,recycling
Unknown,48.8516101,2.2915432,recycling
Paris Post Office,39.6125349,-87.6933595,post_office
Cedar Hill Cemetery,33.6651382,-95.5976148,grave_yard
Cedar Hill School,33.6692717,-95.5916253,school
Providence Church,33.6981615,-95.4955114,place_of_worship
Temple Church,36.3025575,-88.293654,place_of_worship
Trinity Church,36.3052272,-88.293498,place_of_worship
Restlawn Cemetery,33.7256605,-95.5477354,grave_yard
Central High School,36.3103357,-88.3400443,school
Crutchfield Cemetery,36.298947,-88.345878,grave_yard
Travis Junior High School,33.6637162,-95.593292,school
Henry County Training School,36.3050578,-88.3228216,school
Maplewood Church,36.2866577,-88.3284328,place_of_worship
Northside Church,36.3110326,-88.3170779,place_of_worship
Paris Memorial Cemetery,36.2853355,-88.3003212,grave_yard
Pilgrim Church,36.2958307,-88.3124725,place_of_worship
Robert E Lee School,36.3058912,-88.330044,school
Grace Temple Church of God in Christ,33.6701055,-95.5538463,place_of_worship
Overcomer Church of God in Christ,33.6698276,-95.5630133,place_of_worship
Peace Lutheran Church,33.6639946,-95.5444016,place_of_worship
Mount Zion Methodist Church,33.6698277,-95.5546796,place_of_worship
The Church of Jesus Christ of Latter-day Saints,33.6658509,-95.5206712,place_of_worship
Greater New Faith Baptist Church,33.670661,-95.5560686,place_of_worship
Mount Canaan Baptist Church,33.648439,-95.5555129,place_of_worship
New Birth Baptist Church,33.6698273,-95.5835694,place_of_worship
New Hope Baptist Church,33.6428842,-95.5032891,place_of_worship
New Salem Baptist Church,33.675661,-95.5538464,place_of_worship
Northwest Baptist Church,33.6714942,-95.5694024,place_of_worship
Providence Baptist Church,33.669828,-95.5296789,place_of_worship
Saint John Baptist Church,33.6764944,-95.5424571,place_of_worship
Saint Luke Baptist Church,33.6698273,-95.5866251,place_of_worship
Solid Rock Baptist Church,33.6728831,-95.5674579,place_of_worship
Springlake Baptist Church,33.6480875,-95.5112569,place_of_worship
Victory Baptist Church,33.666217,-95.5202341,place_of_worship
Church of Christ,33.660939,-95.542457,place_of_worship
Church of Christ Tudor Street,33.6678004,-95.5540176,place_of_worship
Church of Christ Westwood,33.6631607,-95.5921807,place_of_worship
North East Church of Christ,33.6723279,-95.5366236,place_of_worship
Church of God,33.6589939,-95.6085701,place_of_worship
El Bethel Baptist Church,33.6698273,-95.5896807,place_of_worship
Galilee Full Gospel Baptist Church,33.6676055,-95.5502351,place_of_worship
Barber Cemetery,36.2900574,-88.2803205,grave_yard
Saint Pauls Baptist Church,33.6670505,-95.5005113,place_of_worship
Atkins Porter School,36.2997259,-88.3177301,school
McCampbell Cemetery,36.2915517,-88.3279883,grave_yard
Tharpe Cemetery,36.3042243,-88.3061544,grave_yard
Grove Junior High School,36.292558,-88.3292109,school
Paris Post Office,36.3017246,-88.3261551,post_office
La Boule Noire,48.882343,2.3402758,theatre
Saint Francis Cabrini Church,39.4701266,-92.01068,place_of_worship
Fairview Cemetery,44.2075701,-70.4947813,grave_yard
Hillside Cemetery,44.2514585,-70.4989483,grave_yard
Partridge Cemetery,44.2942355,-70.4803377,grave_yard
Whittemore Cemetery,44.2661805,-70.4661704,grave_yard
Deering Memorial United Methodist Church,44.2236809,-70.5217264,place_of_worship
First Congregational Church,44.2225699,-70.5108929,place_of_worship
Paris Hill Bible Church,44.2612079,-70.5016956,place_of_worship
South Paris Unitarian Universalist Church,44.2222135,-70.5128947,place_of_worship
Trinity Evangelical Lutheran Church,44.223681,-70.5031149,place_of_worship
Paris High School,38.2125765,-84.2549314,school
South Side School,38.2042432,-84.2599315,school
Western High School,38.2134097,-84.2590982,school
Emerson School,42.2288161,-111.4004847,school
Oakwood Cemetery,35.2911992,-93.7157502,grave_yard
First Baptist Church,35.293977,-93.7296395,place_of_worship
Church of Christ,35.2936992,-93.7260283,place_of_worship
Paris Middle School,35.2964931,-93.721685,school
Saint Joseph School,35.2913972,-93.7330465,school
Paris Elementary School,35.2914195,-93.7145333,school
Unknown,48.8826673,2.3364768,toilets
Sarl Pharmacie Place Denfert-Rochereau,48.8346489,2.3330683,pharmacy
Unknown,48.8313514,2.3356899,parking_entrance
Unknown,48.8848011,2.3248579,post_box
Unknown,48.8572799,2.2651673,post_box
Café Juliette,48.8514932,2.398692,restaurant
Paris Post Ofice,35.2936992,-93.7301951,post_office
Paris Fire Department,35.2929386,-93.7279736,fire_station
Paris Police Department,35.2916081,-93.7135982,police
Logan County Sheriff's Office,35.28979,-93.7127285,police
Unknown,48.8381888,2.2785655,post_box
Unknown,48.8385082,2.2819249,post_box
Unknown,48.8361965,2.2933747,post_box
Unknown,48.8340248,2.2852945,post_box
Unknown,48.8311316,2.2922791,post_box
Unknown,48.8349694,2.3004268,post_box
Unknown,48.8504767,2.382585,post_box
Unknown,48.8499521,2.3844522,post_box
Unknown,48.8574923,2.3804674,post_box
Henry County Courthouse,36.3023049,-88.325935,courthouse
Paris City Hall,36.3025579,-88.3286551,townhall
AM and Welma Aikin Junior Regional Archives,33.6539948,-95.5324566,public_building
Unknown,48.8976904,2.3257252,post_box
Unknown,48.8929376,2.3162818,post_box
Unknown,48.8913837,2.3203746,post_box
Unknown,48.8929162,2.3275234,post_box
Unknown,48.8946526,2.3260019,post_box
Unknown,48.8960162,2.3267063,post_box
Unknown,48.8741081,2.3268361,post_box
Unknown,48.8813964,2.3315616,post_box
Unknown,48.8698925,2.3226128,post_box
Unknown,48.8690381,2.324437,post_box
Unknown,48.8682809,2.308938,post_box
Unknown,48.867583,2.3075899,post_box
Unknown,48.8662025,2.3081853,post_box
Unknown,48.8672033,2.3175552,drinking_water
Unknown,48.8567887,2.2922671,post_box
Unknown,48.8529321,2.2969554,post_box
Unknown,48.851043,2.3006526,post_box
Unknown,48.8496077,2.2986132,post_box
Le Bistrot des Plantes,48.8300837,2.3230365,restaurant
Unknown,48.829681,2.3218792,atm
Gourmet d'Alésia,48.829518,2.3227055,fast_food
Cabinet vétérinaire,48.829754,2.3228523,veterinary
Café Charlot,48.8630156,2.3625783,restaurant
L’Estaminet des Enfants Rouges,48.862879,2.361721,restaurant
Unknown,48.849647,2.3599459,bench
Unknown,48.8495349,2.3601438,bench
Le Boucl'art,48.8528282,2.4062488,restaurant
Unknown,48.8316492,2.2999377,toilets
Crédit Agricole,48.8514868,2.4001157,bank
Caisse d'Épargne,48.851724,2.4013602,bank
Les Pipos,48.8474779,2.3483547,restaurant
Unknown,48.8583355,2.4147171,toilets
BRED,48.8521024,2.4034631,bank
Grande Pharmacie d'Avron,48.8519996,2.4016737,pharmacy
Unknown,48.8514736,2.3982217,post_box
Unknown,48.8529074,2.3973531,bicycle_parking
Unknown,48.8539232,2.3938833,parking
Unknown,48.8537772,2.396003,bicycle_parking
Unknown,48.8547572,2.3940413,toilets
Hanawa,48.8672258,2.3079158,restaurant
Unknown,48.8332573,2.333217,post_box
Brasserie Wepler,48.8838613,2.3277184,restaurant
Café des 2 Moulins,48.8849197,2.333654,cafe
Le Basilic,48.8861622,2.3341007,restaurant
Café de la Musique,48.889198,2.3931104,cafe
Unknown,48.8412171,2.3745004,bicycle_parking
Le Bon Pêcheur,48.8619895,2.348435,restaurant
Au Père Tranquille,48.862198,2.3485488,restaurant
Pharmacie Goncourt,48.8697016,2.3714823,pharmacy
Caisse d'Épargne,48.869581,2.3715694,bank
Caisse d'Épargne,48.8689135,2.3720553,bank
CIC,48.8687983,2.3721757,bank
Pharmacie des Cliniques,48.8663678,2.3735097,pharmacy
BNP Paribas,48.8653,2.3752307,bank
Café Charbon,48.8658567,2.3778299,bar
Pharmacie Saint-Maur Oberkampf,48.8658968,2.3774054,pharmacy
Au Chat Noir,48.867249,2.376097,cafe
Marquise Café,48.8671688,2.3758869,bar
Unknown,48.8713745,2.3723412,bicycle_parking
Unknown,48.8735018,2.3704852,bicycle_parking
Unknown,48.8747466,2.3721136,bicycle_parking
Unknown,48.8754558,2.3702131,motorcycle_parking
Unknown,48.8756333,2.3688579,bicycle_parking
Unknown,48.8740565,2.3704295,motorcycle_parking
Unknown,48.8761566,2.3705733,bicycle_parking
Unknown,48.8767843,2.3701909,bicycle_parking
Unknown,48.8766979,2.3671925,bicycle_parking
Louis Blanc - Jemmapes,48.879237,2.3686218,bicycle_rental
Unknown,48.8755278,2.3677045,motorcycle_parking
Unknown,48.8750608,2.3672145,bicycle_parking
Pharmacie de l'Hôpital Saint-Louis,48.8736618,2.3646917,pharmacy
Unknown,48.8735521,2.3651158,motorcycle_parking
Unknown,48.8728146,2.3664992,motorcycle_parking
Unknown,48.8718526,2.3655322,motorcycle_parking
Le Bistrot des Oies,48.8718909,2.3674589,restaurant
Unknown,48.8715844,2.3675639,motorcycle_parking
Unknown,48.87163,2.3680234,motorcycle_parking
Unknown,48.8723022,2.3695981,toilets
Unknown,48.8696706,2.3692407,bicycle_parking
Unknown,48.8710595,2.3701442,motorcycle_parking
Unknown,48.8706915,2.3704032,motorcycle_parking
Pharmacie Tomasini Cohen,48.8701624,2.3706958,pharmacy
Unknown,48.8699052,2.3712075,recycling
Centre dentaire et ophtalmologie Paris 10 - Belleville,48.8720336,2.3765707,doctors
Pharmacie Mimouni,48.8706026,2.3727062,pharmacy
Unknown,48.8687314,2.3723378,bicycle_parking
Unknown,48.8683203,2.3721799,motorcycle_parking
Unknown,48.8683338,2.3698757,bicycle_parking
Unknown,48.8680633,2.3727534,bicycle_parking
Unknown,48.8681448,2.373739,motorcycle_parking
Unknown,48.8679859,2.3782324,motorcycle_parking
Pharmacie Choumin,48.8663019,2.3713203,pharmacy
Piccola Mia,48.8664056,2.3652791,restaurant
Indiana,48.8663597,2.3644497,restaurant
BNP Paribas,48.8673441,2.3627982,bank
Popeyes,48.8674541,2.3626287,fast_food
Kani,48.867516,2.3625173,restaurant
McDonald's,48.8676055,2.3623607,fast_food
KFC,48.8676948,2.3622183,fast_food
Burger King,48.8677893,2.3620618,fast_food
Le Little,48.8667141,2.3660388,bar
Bistrot Pop,48.8668187,2.3672972,cafe
Centre médico-dentaire,48.8666115,2.3684395,dentist
French Karib',48.8662257,2.3686351,fast_food
Arlecchino,48.8652936,2.3734738,restaurant
McDonald's,48.8654797,2.3747464,fast_food
Les Anemones,48.8653692,2.3748561,bar
Crédit du Nord,48.8652053,2.3758875,bank
Le Soleil Levant,48.864844,2.3777175,cafe
BNP Paribas,48.8629273,2.3859696,bank
Unknown,48.8631553,2.3869265,bicycle_parking
Unknown,48.8641296,2.385961,recycling
Unknown,48.8640692,2.3863363,bicycle_parking
Haut les Cœurs,48.8641179,2.3865178,bar
La Mère Lachaise,48.864331,2.3862796,restaurant
Unknown,48.8652815,2.3850044,recycling
Auberge des Artistes,48.8661952,2.384193,cafe
Numidia,48.8662414,2.3841221,restaurant
Pharmacie du 20ème,48.8666671,2.3837961,pharmacy
LCL,48.8669455,2.3836854,bank
KFC,48.8670613,2.3836164,fast_food
Caisse d'Épargne,48.8672281,2.3825307,bank
McDonald's,48.8670436,2.3824226,fast_food
Dolce Café,48.8667112,2.3828574,cafe
Le Grenier,48.8665829,2.3816081,bar
Les Marquises (Ex O'berzinc),48.8667135,2.3812373,bar
Unknown,48.8663851,2.3814876,bicycle_parking
Unknown,48.8666422,2.3812622,motorcycle_parking
Oberkafé,48.8664093,2.3800294,bar
Kouchi Yaki,48.866153,2.3798466,restaurant
Unknown,48.8662463,2.3799343,motorcycle_parking
Le Quartier Général Oberkampf,48.8657119,2.377125,bar
Le Jumeyrah,48.865106,2.3775521,restaurant
Taira,48.8657923,2.3770745,restaurant
Le bap,48.8658873,2.3769721,pub
Kyobashi,48.8662313,2.3766863,restaurant
Nun's Café,48.8668323,2.3764592,bar
Anika,48.866856,2.3764374,restaurant
La Contrescarpe,48.8442805,2.3494077,bar
Chauds Les Sandwichs,48.8460777,2.3542886,fast_food
Schmoutz,48.8680409,2.3753921,restaurant
Chair De Poule,48.8676394,2.3754366,bar
Unknown,48.867445,2.3750281,bicycle_parking
Comédie des 3 bornes,48.8674856,2.3754516,theatre
Le Métro,48.8689436,2.3802717,cafe
L'Assassin,48.8687712,2.3799862,bar
Unknown,48.8687118,2.3798647,pharmacy
Unknown,48.8680671,2.3788237,bicycle_parking
Unknown,48.8679964,2.3784165,recycling
Onze bar,48.8681035,2.3782452,pub
McDonald's,48.8445017,2.3247331,fast_food
Flam's,48.8598868,2.3476311,restaurant
The Moose Bar,48.8518241,2.3377078,bar
Unknown,48.87198,2.3643793,recycling
L'Escargot,48.877031,2.3879568,pub
Pharmacie Principale,48.8680375,2.3866814,pharmacy
Uva,48.8645121,2.3683814,bar
Unknown,48.8641829,2.3687115,motorcycle_parking
Unknown,48.8805192,2.2865793,fuel
Unknown,48.8324194,2.3618921,bench
Bomby's Cafe,48.8317268,2.3568922,cafe
Le Fumaillon,48.8321515,2.3564215,cafe
LCL,48.8318807,2.3568124,bank
Chez Dudule,48.8309612,2.357341,cafe
Unknown,48.8314699,2.3578673,recycling
Jules,48.830613,2.3545699,cafe
McDonald's,48.8259948,2.3570144,fast_food
La table d'Aligre,48.8491407,2.3785568,restaurant
Unknown,48.8491774,2.3781154,post_box
Le Calumet,48.845564,2.3806988,cafe
Pharmacie Diderot,48.8463393,2.3794911,pharmacy
Pharmacie Froux,48.8468182,2.3839633,pharmacy
Les Bombis,48.846715,2.3839386,restaurant
Saint-Éloi,48.8454696,2.3871278,library
Bibliothèque Diderot,48.8459092,2.3777264,library
Médiathèque Violette Leduc,48.8515576,2.3841021,library
Bibliothèque Parmentier,48.860236,2.3791681,library
Pharmacie Benhamou,48.8483622,2.3941331,pharmacy
Unknown,48.8505246,2.3758222,recycling
La commune libre d'Aligre,48.8479621,2.3771639,restaurant
La Grille,48.8486594,2.3777375,cafe
Le Crozatier,48.8480388,2.3805088,cafe
Nous 4,48.8468326,2.3790947,restaurant
Le Penty,48.8489783,2.3772212,cafe
Le Baron Rouge,48.8494401,2.377381,bar
Les Cuves de Fauve,48.8532762,2.3792125,pub
Bistro Les Cousins,48.8508829,2.3784248,bar
Le faubourg,48.8511991,2.3757858,cafe
Bistrot du Coin,48.8498165,2.3742536,cafe
Le Bar à Mines,48.8494366,2.3743781,pub
Les Affranchis,48.8483966,2.3726008,restaurant
Le Botaniste,48.8490362,2.3712506,restaurant
Les Garnements,48.8477004,2.3736634,restaurant
The Madison,48.8447706,2.3779554,restaurant
Le Lys d'or,48.8451286,2.3836536,restaurant
Chapelle de l'Agneau de Dieu,48.844602,2.377527,place_of_worship
École élémentaire Diderot,48.8460766,2.3773448,school
Bibliothèque Forney,48.8534078,2.3591424,library
La Liberté,48.8500421,2.3839793,cafe
Les Blouses Blanches,48.8501309,2.3831021,bar
Au Métro,48.8500669,2.3838263,cafe
164 Sauvage,48.8502585,2.3814712,cafe
MK2 Nation,48.8482399,2.3931394,cinema
Théâtre de la Main d'Or,48.8522803,2.3779953,theatre
Le Pacha,48.8516706,2.3781819,restaurant
Le Fanfaron,48.8516517,2.3783213,bar
Le 138,48.8504188,2.3794482,cafe
Bốn Do,48.8465865,2.3816584,restaurant
La cantine Diderot,48.8466308,2.3820511,restaurant
MK2 Beaubourg,48.8615738,2.3524143,cinema
Pharmacie Steuer,48.8505616,2.3818961,pharmacy
Pharmacie de Chaligny,48.8499708,2.3841427,pharmacy
Pharmacie Reuilly Diderot,48.8471042,2.3871676,pharmacy
Le Globe Diderot,48.8471871,2.3870859,cafe
Café Pivoine,48.8505824,2.3846027,cafe
La Parisienne du Faubourg,48.8505846,2.3841539,cafe
L'Orient d'Or,48.8739244,2.3454201,restaurant
Happy Nouilles,48.8645203,2.3550824,restaurant
Poupée,48.8613333,2.3538187,restaurant
Les Caves Dupetit Thouars,48.8653627,2.3620515,cafe
Café Crème,48.8650045,2.3627574,cafe
Season,48.8651196,2.3626307,restaurant
La Cantine du Siam,48.8489304,2.376284,restaurant
Unknown,48.8489281,2.3761561,pharmacy
Rev'Bar,48.8462179,2.3783901,cafe
Enzo Dürüm,48.8462601,2.3787226,fast_food
Miyako - 故宫,48.8462483,2.3786596,restaurant
L'indé,48.8453283,2.3813011,bar
Les Délices du Colonel,48.8445906,2.3834045,restaurant
LCL,48.8466239,2.3790653,bank
BRED,48.8465629,2.3785973,bank
Société Générale,48.8507535,2.3778347,bank
BRED,48.8509217,2.3781565,bank
BNP Paribas,48.8502726,2.3811628,bank
Ty Louis,48.8492044,2.389514,restaurant
Pizza Five,48.8477398,2.3888781,restaurant
La Mère Pouchet,48.8478628,2.3928249,cafe
Thaï Kanda,48.8476122,2.393034,restaurant
Centre d’animation Montgallet,48.8441929,2.3885529,community_centre
Centre d'animation Reuilly,48.8424054,2.3895404,arts_centre
Jodhpur Palace,48.8420168,2.3896839,restaurant
Gare du Nord - Dunkerque,48.8803674,2.3528307,bicycle_rental
Dom-Pérignon - Gravelle,48.8254543,2.4099127,bicycle_rental
Unknown,48.8336479,2.4448001,drinking_water
Unknown,48.8487767,2.3429291,motorcycle_parking
Unknown,48.8456425,2.4033266,bicycle_parking
Unknown,48.8662757,2.3718964,bicycle_parking
Unknown,48.8758342,2.4011315,bicycle_parking
Unknown,48.8703695,2.3665503,bicycle_parking
Unknown,48.8748244,2.3637082,bicycle_parking
Unknown,48.8753956,2.36416,bicycle_parking
McDonald's,48.8366655,2.3506956,fast_food
L'Escurial,48.8367718,2.3496494,cinema
Le Canon des Gobelins,48.8367142,2.3522749,restaurant
Unknown,48.8311541,2.3565888,post_box
Unknown,48.8831518,2.371956,bicycle_parking
Unknown,48.8833551,2.37213,bicycle_parking
Unknown,48.8836902,2.3740022,bicycle_parking
Unknown,48.8840147,2.3752146,bicycle_parking
Unknown,48.8844537,2.3762678,bicycle_parking
Unknown,48.8849729,2.3784198,bicycle_parking
Unknown,48.8851153,2.3790072,bicycle_parking
Unknown,48.8854643,2.3799694,motorcycle_parking
Unknown,48.8854852,2.3808399,bicycle_parking
Unknown,48.8856762,2.3815928,bicycle_parking
Unknown,48.8865173,2.3847872,bicycle_parking
Unknown,48.8876088,2.3884598,bicycle_parking
Unknown,48.8890496,2.3944887,bicycle_parking
Unknown,48.8330843,2.3545682,post_box
Unknown,48.8329033,2.3622084,post_box
La Halte Paris 13,48.8330139,2.3615547,bar
Unknown,48.8711119,2.3582217,recycling
Crédit Agricole,48.8350855,2.3317692,atm
Denfert Rochereau,48.8347711,2.3321841,taxi
McDonald's,48.8332009,2.3318037,fast_food
Pharmacie du Lion,48.8329627,2.3315938,pharmacy
Société Générale,48.8330526,2.331673,bank
Les Cariatides,48.8644935,2.3509011,bar
Osaka Sushi,48.8297431,2.3515115,restaurant
Unknown,48.8318964,2.3563061,bench
Unknown,48.8318054,2.3563929,bench
Unknown,48.8317279,2.3564905,bench
Unknown,48.8316149,2.3566107,bench
Unknown,48.8314963,2.3566536,bench
Bistrot Du Jardin,48.8617057,2.3441306,restaurant
Unknown,48.8633812,2.3710387,toilets
Unknown,48.8725576,2.3765752,bicycle_parking
Pharmacie du Haut Mesnil,48.870061,2.3963739,pharmacy
Unknown,48.8664986,2.3916924,recycling
Unknown,48.8662345,2.3896266,recycling
Unknown,48.8648509,2.3881307,recycling
Unknown,48.8672736,2.3965005,recycling
Unknown,48.8739993,2.3959508,bicycle_parking
Belleville - Pré Saint-Gervais,48.875466,2.392949,bicycle_rental
Unknown,48.8762259,2.3805426,toilets
Unknown,48.8778734,2.3812441,toilets
Unknown,48.8777466,2.3856191,recycling
Unknown,48.8862492,2.3830897,post_box
Unknown,48.886221,2.3829609,recycling
Unknown,48.8866749,2.3847328,recycling
Unknown,48.8831878,2.371405,bicycle_parking
Unknown,48.8904705,2.3869396,recycling
Unknown,48.8638578,2.3754544,recycling
Unknown,48.8641368,2.3754657,bicycle_parking
Unknown,48.861277,2.3810581,recycling
Unknown,48.8586617,2.3838511,recycling
Unknown,48.8586846,2.3839444,toilets
Saint-Bon - Rivoli,48.8580787,2.3502718,bicycle_rental
Paris Montsouris,48.8212165,2.3424964,post_office
Théâtre de la Cité Internationale,48.8191551,2.3383937,theatre
Unknown,48.8583793,2.3677609,recycling
Temple - Jean-Pierre Timbaud,48.8643764,2.3661622,bicycle_rental
Unknown,48.8717291,2.3645602,post_box
Unknown,48.870662,2.361195,bicycle_parking
Pharmacie Magenta,48.8707066,2.3614499,pharmacy
Unknown,48.8732747,2.3584835,bicycle_parking
Crédit Agricole,48.8732053,2.3585526,bank
Unknown,48.8791833,2.3858327,post_box
Rue De Patay,48.827886,2.3709325,taxi
La Caravane,48.868346,2.371449,bar
Siseng,48.8722287,2.365131,restaurant
Le Feu de Mars,48.8275755,2.353231,restaurant
Unknown,48.824605,2.3401901,post_box
Silvia Monfort,48.8308115,2.3001985,theatre
Chérie Coco,48.8758235,2.3834309,restaurant
Café Kraft,48.8748569,2.3825637,cafe
Les Buttes Chaumont,48.8753855,2.3823708,pub
McDonald's,48.8738345,2.384842,fast_food
Théâtre Clavel,48.8743651,2.3850659,theatre
Unknown,48.8755332,2.3832256,bicycle_parking
Unknown,48.8756795,2.3830762,bicycle_parking
Le Dellys,48.8783181,2.3578049,restaurant
Moncœur Belleville,48.8716239,2.3858689,cafe
Unknown,48.8703225,2.2825144,bicycle_parking
Scossa,48.8699373,2.2847393,restaurant
Place Victor Hugo,48.869589,2.2848365,taxi
Roméo,48.8701181,2.2849979,restaurant
The Honest Lawyer,48.8711393,2.283673,pub
Le Duc,48.8476402,2.3424262,cafe
Danse de la Fontaine Émergente,48.8391823,2.370612,fountain
Police nationale,48.8725069,2.3582792,police
Brady's Irish Pub,48.8778514,2.3157284,pub
Unknown,48.8654371,2.3745496,post_box
Mairie du 11e - Léon Blum,48.8582436,2.3800129,taxi
Pharmacie Lourmel,48.8389201,2.2828876,pharmacy
Pharmacie du Grand Pavois,48.8364681,2.2819452,pharmacy
Bouffes du Nord,48.8839948,2.3588579,theatre
Unknown,48.8710381,2.3610687,toilets
École maternelle Le Vau,48.8663456,2.4118041,school
École primaire B,48.8668186,2.4119143,school
École primaire A,48.8675233,2.4119277,school
Collège Pierre Mendès France,48.8683117,2.4115585,school
Pharmacie Rivaux et Arbaut,48.8647822,2.4045312,pharmacy
Leadersanté,48.864397,2.409669,pharmacy
La Filmothèque du Quartier Latin,48.8494965,2.3428666,cinema
Unknown,48.8370368,2.3913059,recycling
Le Marigny,48.8851298,2.3208036,cafe
La Cidrerie Des Batignolles,48.885747,2.3215136,bar
La Famille,48.8860554,2.3188123,restaurant
Pharmacie du village Batignolles,48.8856296,2.3199522,pharmacy
Viet Siam,48.8741633,2.3754482,restaurant
Lê Mai Vietnam,48.8361883,2.4001628,restaurant
Makoto,48.8361733,2.399255,restaurant
Unknown,48.8361649,2.3976709,recycling
Grande Pharmacie de Bercy,48.8365312,2.3932203,pharmacy
Les Voisins,48.8361823,2.3989988,cafe
Capri's,48.8355057,2.3978609,restaurant
Felix Café,48.839149,2.3938241,cafe
La Gazelle d'Orient,48.8381479,2.396609,fast_food
Paris Daumesnil / Tahiti,48.8398751,2.3939229,post_office
Unknown,48.839237,2.3959499,recycling
Unknown,48.8390556,2.3959183,post_box
Piccola Italia,48.8385476,2.3962122,restaurant
Pharmacie de la Place,48.8361512,2.3875057,pharmacy
Unknown,48.8425954,2.292132,toilets
McDonald's,48.8374673,2.2956006,fast_food
Le Post,48.834658,2.3049498,pub
Unknown,48.8349941,2.3039982,recycling
Fontaine Wallace,48.879478,2.291152,drinking_water
McDonald's,48.8646486,2.4083438,fast_food
Le Vingtième,48.8643936,2.4080349,restaurant
Société Générale,48.8640304,2.409058,bank
Total,48.863682,2.4079099,fuel
Paris Édith Piaf,48.8647113,2.4060583,post_office
Unknown,48.835062,2.4078967,fountain
McDonald's,48.8354775,2.4060799,fast_food
Le Swann,48.8361097,2.4056728,restaurant
Edelweiss,48.8352503,2.385703,cafe
Sushi Yuki,48.8347357,2.3876562,restaurant
Bercy Café,48.8398654,2.3799031,cafe
Le Chambertin,48.8401087,2.3804879,cafe
Les Spectacles,48.8394999,2.3803553,restaurant
Anco,48.8393205,2.3806346,restaurant
Pharmacie Dang Trung,48.8374325,2.3912706,pharmacy
McDonald's,48.8206897,2.3639393,fast_food
CCF,48.8367977,2.2983371,bank
Unknown,48.8369325,2.2971081,post_box
Fontaine Wallace,48.8374741,2.296437,drinking_water
La Source,48.8372992,2.2970333,cafe
Le Quotidien,48.8372438,2.297117,cafe
Unknown,48.8426769,2.2964541,drinking_water
Unknown,48.8447051,2.3110485,drinking_water
Fontaine Wallace,48.8418835,2.3030663,drinking_water
Unknown,48.8356606,2.3026082,toilets
Fontaine Wallace,48.8358327,2.3023508,drinking_water
Unknown,48.8425344,2.2977018,toilets
Unknown,48.8418917,2.2973124,drinking_water
Petite Fontaine Wallace,48.8375362,2.2963597,drinking_water
Unknown,48.8371698,2.2968218,drinking_water
Unknown,48.8408597,2.2998186,post_box
Fontaine Wallace,48.8411351,2.2996815,drinking_water
Unknown,48.8513729,2.3428143,drinking_water
Paris/Edgar Quinet/2,48.8395317,2.3295765,charging_station
Charenton - Jardiniers,48.8337873,2.3947302,bicycle_rental
Pharmacie de la Bibliothèque,48.8305282,2.3779956,pharmacy
Unknown,48.826739,2.3648368,bicycle_parking
Unknown,48.8268296,2.3646098,drinking_water
Unknown,48.8268273,2.3645814,toilets
Unknown,48.8266945,2.3418103,toilets
Unknown,48.8266959,2.3418366,drinking_water
Unknown,48.8312546,2.3161132,toilets
Fontaine Wallace,48.8276961,2.3323037,drinking_water
Fontaine Wallace,48.8526052,2.3472283,drinking_water
Fontaine Wallace,48.8506568,2.3329994,drinking_water
Unknown,48.853661,2.3438529,drinking_water
Unknown,48.8223603,2.3376975,drinking_water
Signorvino,48.8531785,2.3444351,restaurant
Fontaine Wallace,48.8422591,2.3861168,drinking_water
Fontaine Wallace,48.8462998,2.379324,drinking_water
Fontaine Wallace,48.8399294,2.404597,drinking_water
Fontaine Wallace,48.8448378,2.4051177,drinking_water
Unknown,48.847452,2.4048594,drinking_water
Unknown,48.8473395,2.4060719,drinking_water
Unknown,48.8351451,2.4339711,drinking_water
Unknown,48.8356789,2.430625,drinking_water
Unknown,48.8375477,2.4255552,drinking_water
Unknown,48.8346793,2.4193483,drinking_water
Fontaine Wallace- Saint-Spire,48.8684023,2.3502078,drinking_water
Fontaine Wallace,48.8662853,2.3197532,drinking_water
Unknown,48.867991,2.3372848,drinking_water
Fontaine Wallace,48.8554435,2.3595073,drinking_water
Irish Pub,48.847497,2.3970587,pub
École Maternelle Daumesnil,48.8372431,2.4025512,school
École élémentaire du Général Michel Bizot,48.8373514,2.4035461,school
L'Aubergeade,48.8466115,2.3835147,restaurant
Curry Villa,48.8464754,2.3834793,restaurant
Fontaine Wallace,48.8529121,2.3430702,fountain
Unknown,48.8522343,2.3401016,recycling
Unknown,48.8502442,2.3485713,fountain
Unknown,48.886526,2.2856504,post_box
La Boussole,48.85191,2.3341836,restaurant
Fontaine Wallace,48.8844724,2.3214773,drinking_water
Fontaine Wallace,48.884908,2.2982604,drinking_water
Fontaine Wallace,48.8815112,2.2955182,drinking_water
Unknown,48.8639207,2.2411821,drinking_water
Chez Francis,48.8650517,2.3018704,restaurant
Unknown,48.842133,2.3862159,recycling
Unknown,48.8417493,2.3866178,post_box
Fontaine Wallace,48.8410959,2.3877746,drinking_water
Unknown,48.8411384,2.3882177,post_box
Unknown,48.8412077,2.388916,recycling
Unknown,48.8685813,2.2651666,drinking_water
Fontaine à l'Albien,48.8652473,2.2754857,drinking_water
Les Pères Populaires,48.8510126,2.4018663,bar
Fontaine Wallace,48.8364073,2.3595567,drinking_water
Unknown,48.8325651,2.3114089,toilets
Unknown,48.8325568,2.3113862,drinking_water
Unknown,48.832586,2.356175,toilets
Unknown,48.8396421,2.3617492,toilets
Unknown,48.8396268,2.36174,drinking_water
Unknown,48.8430771,2.3643372,toilets
École maternelle des Grands Champs,48.8504321,2.3997456,school
Unknown,48.8504505,2.3989872,post_box
Le Bosphore,48.8518812,2.4009838,fast_food
Le Cachiquet,48.8396241,2.4024373,restaurant
Le Jean Bart,48.8517859,2.401582,bar
Capone Nation,48.8477852,2.3980971,restaurant
Chez Prosper,48.8485856,2.3983193,restaurant
Unknown,48.8312709,2.3427575,post_box
Oh Sushi,48.8284431,2.3428787,restaurant
Fontaine Wallace,48.8548336,2.3455606,drinking_water
Fontaine Wallace,48.8552512,2.3476157,drinking_water
Fontaine Wallace,48.8553803,2.3476867,drinking_water
Fontaine Wallace,48.8554292,2.3475646,drinking_water
Fontaine Wallace,48.8552816,2.3474675,drinking_water
Le Café Chineur,48.8319371,2.3141252,restaurant
Plaisance,48.8316576,2.3137113,taxi
Café Plaisance,48.8314549,2.3149921,cafe
Pharmacie Plaisance,48.8315542,2.3147243,pharmacy
Délices Zhong Hua,48.8319092,2.3145268,fast_food
Le Bouquet,48.832937,2.3161042,cafe
Wako,48.8330479,2.3162878,restaurant
Shiawase,48.8332281,2.3169449,restaurant
Le 7e Art,48.8334157,2.3169944,cafe
Losserand Café,48.8338366,2.3181857,bar
Mosuke,48.8362236,2.3223968,restaurant
Chez Farhat,48.8363661,2.3223018,restaurant
Casa Dagusto,48.8324709,2.320014,restaurant
Raon,48.832164,2.3202607,restaurant
Pharmacie Didot-Pernety,48.8321147,2.3204611,pharmacy
L'Imprévu,48.8324508,2.3207231,restaurant
Fontaine Wallace,48.8724882,2.2964505,drinking_water
Fontaine Wallace,48.8577975,2.2776833,drinking_water
Unknown,48.8561596,2.280332,drinking_water
Fontaine Wallace,48.8587309,2.2850498,drinking_water
Unknown,48.8503867,2.2499063,drinking_water
Unknown,48.8473143,2.2732078,post_box
Unknown,48.8463428,2.2703668,post_box
Fontaine Wallace,48.8473983,2.2733178,drinking_water
Bai Thong,48.8514297,2.3722999,restaurant
Loulou de Bastille,48.8544625,2.382325,restaurant
Le Goyavier,48.8507756,2.3816053,restaurant
Théâtre de la Bastille,48.8558275,2.3755799,theatre
Pharmacie Bleue,48.8615019,2.3742714,pharmacy
Grande Pharmacie Popincourt,48.8591105,2.376008,pharmacy
Fontaine Wallace,48.8645482,2.2749436,drinking_water
Unknown,48.866865,2.2788566,taxi
Unknown,48.8668739,2.2790217,atm
Unknown,48.8670247,2.2789168,recycling
Victor Hugo - La Pompe,48.8680759,2.2814412,bicycle_rental
CIC,48.8695057,2.2846611,atm
Société Générale,48.8697538,2.2846245,atm
Place Victor Hugo,48.8697674,2.2857979,taxi
Unknown,48.869739,2.2858601,recycling
Unknown,48.8706325,2.2874208,post_box
Unknown,48.8720219,2.290708,recycling
La Galette du Moulin,48.884117,2.3374577,restaurant
Fontaine Wallace,48.8798361,2.2946562,drinking_water
Fontaine Wallace,48.8868265,2.3174741,drinking_water
Fontaine de la place Lévis,48.8835986,2.3135853,drinking_water
Unknown,48.8833401,2.3263118,toilets
Fontaine Wallace,48.8832839,2.3261502,drinking_water
Unknown,48.8354732,2.3022505,post_box
Charonne - Pierre Bayle,48.8584172,2.3904047,bicycle_rental
Pharmacie des Deux Boulevards,48.8615812,2.3729669,pharmacy
Adn Montmartre,48.88675,2.3464439,bar
Foujita,48.8663999,2.3328148,restaurant
Unknown,48.8390955,2.3895099,post_box
Casa Naktel,48.8367172,2.3924117,restaurant
Com Sàigòn,48.8366661,2.3926576,restaurant
Saray,48.8366787,2.3933514,restaurant
Chrono Pizza,48.8362289,2.3950798,fast_food
Les Cent Kilos,48.8611991,2.3750738,cafe
LCL,48.8637899,2.3705884,bank
Pharmacie Voltaire,48.8648604,2.3686851,pharmacy
Unknown,48.8371481,2.3900476,post_box
Unknown,48.8620807,2.261679,drinking_water
Petite Fontaine Wallace,48.8576458,2.2624158,drinking_water
Fontaine Wallace,48.8560751,2.3406591,drinking_water
Fontaine Wallace,48.8358929,2.2933308,drinking_water
Fontaine Wallace,48.841564,2.2914435,drinking_water
Unknown,48.8330059,2.3008747,post_box
Unknown,48.8344931,2.2958373,post_box
Unknown,48.8341037,2.2969985,recycling
Unknown,48.833127,2.2995078,toilets
Fontaine Wallace,48.8320354,2.3026258,drinking_water
Unknown,48.8490322,2.2879214,toilets
Petite Fontaine Wallace,48.8488952,2.2875621,drinking_water
Petite Fontaine Wallace,48.8450063,2.2934495,drinking_water
Petite Fontaine Wallace,48.8428146,2.3128644,drinking_water
Unknown,48.8426635,2.3128016,post_box
Petite Fontaine Wallace,48.8584946,2.2687106,drinking_water
Fontaine Wallace,48.8590276,2.2701439,drinking_water
Unknown,48.8582201,2.2684874,drinking_water
Nationale,48.8296212,2.3650676,pharmacy
Unknown,48.8293299,2.3654239,recycling
Unknown,48.8292023,2.3649335,post_box
Unknown,48.884451,2.3427372,toilets
Petite Fontaine Wallace,48.862222,2.2857842,drinking_water
Fontaine Wallace,48.8627962,2.2854972,drinking_water
Unknown,48.8620791,2.2848191,drinking_water
BNP Paribas,48.8642296,2.2884865,bank
CIC,48.8645963,2.2880351,bank
SG,48.8649321,2.2883111,bank
LCL,48.8654525,2.2886812,bank
Banque Populaire,48.8667948,2.2896169,bank
Unknown,48.8669652,2.2902172,post_box
Unknown,48.8675741,2.2904092,post_box
BNP Paribas,48.8677281,2.290972,bank
Unknown,48.8826965,2.3433853,toilets
Unknown,48.8823136,2.3414391,toilets
Unknown,48.8818089,2.3532339,toilets
Unknown,48.8771098,2.3551079,toilets
La Banque Postale,48.8249557,2.3571699,atm
Unknown,48.8884847,2.3494307,toilets
Unknown,48.819268,2.3597822,post_box
La Terrasse des Métiers,48.8440698,2.3896084,cafe
Royal Montgallet,48.8432256,2.3893039,restaurant
Toto Sushi,48.8450336,2.3825955,restaurant
Thai Time,48.8453967,2.3826032,restaurant
Mei Xi,48.8463781,2.3796937,fast_food
Sefa Antalya,48.8466733,2.3823365,fast_food
Haengbok,48.8470342,2.3868537,restaurant
Kanji,48.8469567,2.3869061,restaurant
Sandwichs Vietnamiens,48.843692,2.3879237,fast_food
Le Relais Diderot,48.8464938,2.3807641,cafe
Sushi Bar,48.8466891,2.3824558,restaurant
Deniz,48.8501888,2.3787984,fast_food
Capucine,48.8508333,2.3797344,restaurant
Bibimcup,48.8506115,2.3813881,fast_food
Mamalee,48.8493705,2.3782973,restaurant
La Conivence,48.8481949,2.3766544,restaurant
Sardegna Tavola,48.8482734,2.3767134,restaurant
Troll Café,48.8502082,2.3780865,bar
Le China,48.8499216,2.37377,restaurant
Les 2 Saveurs,48.8455915,2.3933569,restaurant
Edo Sushi,48.8410573,2.3873134,restaurant
Collège Wolfgang Amadeus Mozart,48.8896469,2.379352,school
Unknown,48.8539775,2.3697059,toilets
Unknown,48.8757728,2.356253,toilets
La Cagnotte,48.8745856,2.3876774,cafe
Le Bariolé,48.8745311,2.3863193,cafe
Unknown,48.8544201,2.3926702,school
BRED,48.8370192,2.4018333,bank
Le Bistrot de Juliette,48.8345868,2.4005135,bar
Le Diplomate,48.834455,2.4007736,bar
Pharmacie Netter,48.844461,2.4054819,pharmacy
LCL,48.8396803,2.3945209,bank
Société Générale,48.8400366,2.3946968,bank
Unknown,48.8424148,2.4052197,taxi
Petite Fontaine Wallace,48.8587344,2.2574119,drinking_water
Unknown,48.8637229,2.2724868,post_box
Unknown,48.860603,2.2802837,post_box
BNP Paribas,48.8397862,2.3968956,bank
CCF,48.8368248,2.4037743,bank
Pharmacie 257,48.8367822,2.4038793,pharmacy
Pharmacie Morchoisne Chhun,48.8411703,2.4049568,pharmacy
Crédit Agricole,48.8368339,2.3917853,bank
Caisse d'Épargne,48.8393074,2.3970077,bank
Police nationale,48.8843283,2.3861616,police
Unknown,48.8884651,2.3158141,toilets
Fontaine Wallace,48.8844757,2.3382719,drinking_water
Fontaine Wallace,48.8860106,2.3414517,drinking_water
Église Adventiste du 7e jour Paris-Sud,48.8343376,2.3571445,place_of_worship
Unknown,48.8492225,2.3711593,toilets
Unknown,48.8568075,2.3541182,toilets
Change Master,48.8503975,2.3429508,bureau_de_change
Chez André,48.8678179,2.3028379,restaurant
Unknown,48.8602055,2.350371,toilets
Kin Kin,48.8478582,2.3735429,restaurant
Le Trend,48.8492472,2.3750569,bar
Rotana Café,48.8492375,2.3751897,cafe
Unknown,48.8448799,2.3727316,taxi
Chez Habibi,48.8493906,2.3750384,bar
Ô Saveur Bar,48.8495128,2.3751307,fast_food
Sanswichs City,48.8466535,2.3736929,fast_food
Pharmacie du Train Bleu,48.8459819,2.3731803,pharmacy
Le Coq,48.8484928,2.3740738,fast_food
Société Générale,48.8469362,2.3721785,bank
Crédit Agricole,48.8461048,2.3740873,bank
Bistrot de la Gare,48.8458407,2.3720988,restaurant
L'Européen,48.8459184,2.3726478,restaurant
Gemma,48.8491483,2.3746044,restaurant
Ristorante Pellicano,48.8471479,2.3725167,restaurant
Le singe à Paris,48.8490117,2.3747506,restaurant
Les Deux Savoie,48.8460316,2.3736366,cafe
Grande Pharmacie du Départ,48.8465693,2.3723121,pharmacy
UGC Lyon Bastille,48.8475201,2.3719469,cinema
Ginza,48.8470772,2.3727405,restaurant
Unknown,48.8461202,2.3724487,post_box
MK2 Bastille (côté Faubourg Saint-Antoine),48.8531618,2.3707603,cinema
Majestic Bastille,48.8539688,2.3699642,cinema
Le Viaduc Café,48.8475609,2.375248,restaurant
Fontaine Wallace,48.8445563,2.3478185,drinking_water
Le Delmas,48.8446604,2.3494341,restaurant
Fontaine Wallace,48.8397602,2.356416,drinking_water
Unknown,48.8438674,2.3547835,post_box
Fontaine Cuvier,48.8439963,2.3550311,drinking_water
Unknown,48.8400716,2.358193,drinking_water
Fontaine Wallace,48.8403818,2.3507009,drinking_water
Karma,48.8469814,2.3726034,restaurant
La Consigne,48.8460336,2.3725445,cafe
Le Muratti's,48.8459741,2.3725698,restaurant
Aux Cadrans,48.8459635,2.3729977,restaurant
Fosca',48.8458112,2.3718694,restaurant
Brasserie – Pizzeria d’Azur,48.8464544,2.3718546,restaurant
HSBC,48.847703,2.374029,bank
Accattone,48.8482056,2.3419216,cinema
Le Mad Maker Pub,48.8482917,2.3417873,bar
Pharmacie du Viaduc,48.8447988,2.3825028,pharmacy
Le Gévaudan,48.8497251,2.3785877,cafe
Beyaz,48.8477171,2.3873421,fast_food
Bistrot Café de Paris,48.8493603,2.3903036,cafe
Brasao,48.8490017,2.390766,fast_food
Paya Thaï Aligre,48.8497475,2.3788828,restaurant
Restaurant Universitaire,48.8468146,2.3805349,restaurant
Colbeh,48.8442266,2.3492264,restaurant
Express de Lyon,48.8459544,2.3720667,cafe
Unknown,48.8843826,2.3302688,toilets
Escale à Saïgon,48.83102,2.3347804,restaurant
Le Bambou,48.8252128,2.3624715,restaurant
Viet 1331,48.8251313,2.3623868,restaurant
Palais d'Asie,48.8248667,2.3622623,restaurant
Amicale des Teo Chew en France,48.8246283,2.3669508,place_of_worship
Y Bowl Noodle,48.868804,2.3594807,restaurant
Fontaine Wallace,48.8777755,2.4052173,drinking_water
L'Été en Pente Douce,48.8863224,2.3451842,restaurant
Au Bercail,48.8864916,2.344949,restaurant
Au Soleil de la Butte,48.8865063,2.3452555,restaurant
La Tropicale Glacier,48.849174,2.3757476,ice_cream
Le Saigon,48.8490473,2.3745288,restaurant
Istambul Ayasofya,48.8471159,2.3736501,fast_food
Caisse d'Épargne,48.8461596,2.374916,bank
Station Café,48.8462033,2.3752807,cafe
Entre les Vignes,48.8462167,2.3753959,restaurant
King Marcel,48.8469007,2.3768375,restaurant
Pharmacie de la Gare de Lyon,48.8460166,2.3767039,pharmacy
La Terrasse de Lyon,48.8458763,2.37564,cafe
Le Maximilien,48.8458747,2.3753513,bar
Gare aux vins,48.8458391,2.3749747,restaurant
La Parisienne,48.8458024,2.3747494,fast_food
LCL,48.8457782,2.3745532,bank
Bodrum,48.8462223,2.3743814,fast_food
Le Duc de Richelieu,48.8469247,2.3730534,restaurant
Traiteur de la Gare,48.8466746,2.3729742,fast_food
Croq' o' Pain,48.8466393,2.3727596,fast_food
Hector Malot,48.8470632,2.3766059,parking
Unknown,48.8569719,2.3793107,recycling
Crédit Agricole,48.8574454,2.3793253,bank
LCL,48.856963,2.3788266,bank
BNP Paribas,48.8567154,2.3790407,bank
La Cappadoce,48.8471577,2.3715454,fast_food
Li Yuan,48.8472307,2.3708678,restaurant
Osaka,48.846728,2.3702882,restaurant
Café de la Seine,48.8467932,2.3690947,cafe
Unknown,48.8465229,2.3686904,bicycle_parking
Unknown,48.8463083,2.3680521,bicycle_parking
Unknown,48.8460038,2.3670323,toilets
Unknown,48.8467778,2.3725345,bicycle_parking
Unknown,48.845958,2.3724556,bicycle_parking
Le Ferryville,48.8454329,2.3684999,cafe
Unknown,48.8455876,2.3697134,bicycle_parking
Authentic Bento,48.8456137,2.3701195,restaurant
Le Paris Lyon,48.8453198,2.3707747,restaurant
Terminus,48.8457953,2.3717151,cafe
Caviste,48.8458427,2.3706835,cafe
La Maison du Délice,48.8457141,2.3704736,restaurant
Salle de la Mutuelle RATP,48.8431185,2.3716816,theatre
Pharmacie Sarrette,48.8274146,2.3319952,pharmacy
Le Kaizen,48.8269211,2.3322906,restaurant
Assanabel,48.8275549,2.3356387,restaurant
Café Canon,48.8260575,2.3569948,cafe
Le Coche,48.8263171,2.3595554,cafe
The Frog & British Library,48.8308857,2.3767781,pub
McDonald's,48.8269269,2.3666605,fast_food
Unknown,48.8840058,2.3529245,toilets
Unknown,48.837415,2.3535402,toilets
Unknown,48.8374935,2.3535342,drinking_water
Unknown,48.8379023,2.3556275,toilets
Unknown,48.8379182,2.3556557,drinking_water
Unknown,48.8391878,2.3387718,toilets
Unknown,48.8382647,2.3418015,toilets
Supersonic,48.8501393,2.3697074,bar
Unknown,48.850377,2.316429,post_box
Le Cépage Montmartrois,48.8896403,2.335878,cafe
Crédit Agricole,48.8717354,2.3404728,bank
Cafe Français,48.8530786,2.368004,cafe
Unknown,48.8499183,2.36673,toilets
Unknown,48.8499026,2.366723,drinking_water
Unknown,48.8500071,2.3667657,waste_basket
BNP Paribas,48.8344235,2.3052236,bank
Pomme de Pain,48.8752261,2.3252146,fast_food
Unknown,48.8778075,2.322606,atm
GMF,48.8750824,2.3241658,bank
Drinks&Co,48.875671,2.326107,bar
McDonald's,48.8752761,2.3255792,fast_food
Burger King,48.8757173,2.326991,fast_food
McDonald's,48.8835297,2.3282798,fast_food
Cinéma des Cinéastes,48.8842985,2.3268322,cinema
Quick,48.8838538,2.3270648,fast_food
BNP Paribas,48.8831845,2.3273339,bank
Unknown,48.845322,2.337745,toilets
Unknown,48.8498097,2.3437206,post_box
Studio Galande,48.8516341,2.3471068,cinema
Le 61,48.8905909,2.3820031,bar
Indian Swad,48.832462,2.2973784,restaurant
Da Attilio,48.8342552,2.3021401,restaurant
Piennolo,48.833199,2.3058031,restaurant
Le Grand Pan,48.8330642,2.3057247,restaurant
KFC,48.837025,2.2962718,fast_food
Lobau Rivoli,48.8566083,2.3533348,parking_entrance
Unknown,48.8474342,2.3717917,toilets
Unknown,48.8666829,2.3665357,motorcycle_parking
Unknown,48.8663872,2.3672953,bicycle_parking
Unknown,48.8659115,2.3697747,bicycle_parking
Unknown,48.8663441,2.3693939,recycling
Unknown,48.8665121,2.3800198,bicycle_parking
Unknown,48.8653617,2.380981,motorcycle_parking
Unknown,48.8761397,2.359939,bicycle_parking
Unknown,48.8829044,2.359171,motorcycle_parking
Unknown,48.883521,2.3606047,bicycle_parking
Unknown,48.8826351,2.3614897,bicycle_parking
Unknown,48.8854259,2.3538571,bicycle_parking
Unknown,48.8841018,2.3596978,bicycle_parking
Unknown,48.8877318,2.3673072,bicycle_parking
Unknown,48.8853772,2.3720905,bicycle_parking
Unknown,48.8901642,2.3625243,bicycle_parking
Unknown,48.8896963,2.367575,bicycle_parking
Unknown,48.8830418,2.379942,bicycle_parking
Unknown,48.8839958,2.3777391,bicycle_parking
Unknown,48.8839652,2.3778055,bicycle_parking
Unknown,48.8793674,2.3913889,motorcycle_parking
Unknown,48.8642121,2.3813367,motorcycle_parking
Cent Kilos,48.8320537,2.3030394,restaurant
Crédit Agricole,48.8563547,2.3050003,bank
Unknown,48.8491281,2.3756993,bicycle_parking
Unknown,48.890743,2.3442453,bicycle_parking
Unknown,48.8482547,2.3739915,bicycle_parking
Unknown,48.8476489,2.3756562,bicycle_parking
Unknown,48.85057,2.378514,motorcycle_parking
Unknown,48.8495764,2.3778022,bicycle_parking
Unknown,48.8488506,2.3771667,bicycle_parking
Unknown,48.8489848,2.3767425,bicycle_parking
Unknown,48.8485986,2.3761016,bicycle_parking
Pinettes,48.8934187,2.3252052,cafe
Pharmacie Gatti,48.883313,2.313319,pharmacy
Villiers - Courcelles,48.8815288,2.3150623,taxi
Unknown,48.8839489,2.3138712,post_box
Unknown,48.8466357,2.372385,bicycle_parking
Fontaine Wallace,48.8805363,2.3247765,drinking_water
Brasserie de l'Ourcq,48.8920861,2.3792943,restaurant
El omda,48.8922518,2.379478,restaurant
Café Urbain,48.892184,2.3791734,cafe
Chez Chen,48.8919041,2.380134,bar
Café Mama Kin,48.889448,2.3834476,bar
Fontaine Wallace,48.8795193,2.3372522,drinking_water
Fontaine Wallace,48.8860003,2.3379474,drinking_water
Unknown,48.8871034,2.3395432,drinking_water
Fontaine Wallace,48.8872913,2.3493292,drinking_water
Fontaine Wallace,48.8849654,2.3524798,drinking_water
Unknown,48.8994594,2.345631,drinking_water
Unknown,48.8925191,2.3614608,drinking_water
Unknown,48.8882284,2.3259385,toilets
Fontaine Wallace,48.8551241,2.3559623,drinking_water
Fontaine Wallace,48.8671548,2.3531769,drinking_water
Fontaine Wallace -Nathalie Lemel,48.8648656,2.363128,fountain
Fontaine Wallace,48.8774814,2.3271935,drinking_water
Fontaine Wallace,48.8675012,2.358579,fountain
Unknown,48.8646615,2.2944295,post_box
Unknown,48.8658673,2.2924984,post_box
Dame,48.8847672,2.3248422,bar
Unknown,48.8862727,2.3438728,toilets
Unknown,48.8349467,2.305241,atm
Société Générale,48.8587676,2.3029733,bank
BNP Paribas,48.8586194,2.3039311,bank
Campanela,48.8585847,2.3032822,pub
Mc Coy,48.8570811,2.3046405,disused
OKA sushi,48.8567473,2.3041925,restaurant
La Maison du Sushi,48.85622,2.3044115,restaurant
Le Bosquet,48.8560475,2.3045247,restaurant
La Fontaine de Jade,48.855529,2.3047711,restaurant
Ricci Family,48.8555818,2.3053301,restaurant
Le Gatsby,48.8549627,2.3050611,bar
Septième Vin,48.8547805,2.3051304,restaurant
LCL,48.8546797,2.3051724,bank
Milagro,48.8549635,2.3056659,restaurant
La Terrasse,48.8547343,2.305806,cafe
Le Tourville,48.8544587,2.306226,cafe
La Commanderie,48.8546375,2.3064864,cafe
Unknown,48.8546463,2.3053441,post_box
Le Repère Gourmand,48.8449888,2.2576271,fast_food
L'Annexe,48.8487827,2.3484052,restaurant
La Petite Périgourdine,48.8488102,2.3472712,restaurant
Le Coup de Torchon,48.8452626,2.3426036,restaurant
Société Générale,48.8473867,2.3183769,atm
La Marquise,48.8451686,2.3207087,restaurant
Café de L'Est,48.8759394,2.3585316,restaurant
Café Martini,48.8559133,2.3670811,pub
Bistrot Paul Bert,48.852223,2.3849242,restaurant
Le Rallye,48.8525866,2.3829655,cafe
Les Funambules,48.8511087,2.3843105,restaurant
BREIZH Café,48.8525339,2.3847257,restaurant
Columbus Café & Co,48.8463782,2.3799128,cafe
Maydo,48.8452457,2.3838856,restaurant
Unknown,48.8554501,2.2376688,drinking_water
Unknown,48.8509656,2.2378488,drinking_water
La Fût Gueuze,48.8363346,2.3582704,bar
Paris Olympiades,48.8239545,2.3634411,post_office
César Pizza,48.8368523,2.3527784,restaurant
Unknown,48.8360338,2.3592594,atm
Pharmacie Campo-Formio Phovea,48.8356906,2.3590066,pharmacy
Unknown,48.891078,2.3190556,post_box
Paris Brochant,48.8910179,2.3191653,post_office
Palermo,48.889004,2.319708,cafe
Pharmacie des Batignolles,48.8889774,2.3193555,pharmacy
Unknown,48.8892596,2.319123,post_box
Unknown,48.8903746,2.3200287,taxi
LCL,48.8870475,2.3139527,bank
Centre d'opthalmologie place Clichy – Optalys,48.8833766,2.3278989,doctors
BNP Paribas,48.8840239,2.3218519,bank
Pharmacie de la Mairie,48.8845426,2.3213297,pharmacy
Pharmacie Népenthès,48.8928875,2.3164329,pharmacy
Unknown,48.8413053,2.3562173,toilets
Unknown,48.8801756,2.3673212,toilets
Le Siècle,48.8718006,2.3062883,restaurant
Starbucks,48.8714631,2.3044258,cafe
Cafe Le Monte Carlo,48.8714048,2.3070491,bar
Unknown,48.8705342,2.3048445,taxi
Unknown,48.8275656,2.300287,recycling
Unknown,48.8296451,2.3015503,post_box
Pharmacie F. Gabriel,48.832047,2.3041505,pharmacy
Unknown,48.8332406,2.3040133,post_box
Pharmacie Brancion-Vouillé,48.8347305,2.3044574,pharmacy
Unknown,48.8346913,2.308518,post_box
Unknown,48.8349872,2.3077669,recycling
Unknown,48.8364186,2.3103935,recycling
Pharmacie Alleray,48.8369001,2.3060929,pharmacy
Unknown,48.8376741,2.344919,bicycle_parking
Unknown,48.8355078,2.3583546,bicycle_parking
Délice d'Or,48.8524629,2.4041332,restaurant
Geoffroy-Saint-Hilaire - Saint-Marcel,48.8390771,2.3568742,bicycle_rental
Unknown,48.8895434,2.3190943,parking
Cactus,48.8582735,2.3552026,bar
Les Marronniers,48.8577814,2.3548606,cafe
Le Carrefour,48.8575154,2.3544599,cafe
Caffé Vito,48.8576092,2.3546532,restaurant
Le Ju,48.8577054,2.3547735,restaurant
Le Pain Quotidien,48.8578536,2.3549054,cafe
Cox,48.8582377,2.3548127,bar
Luminor - Hôtel de ville,48.8586559,2.3536069,cinema
Le Raidd,48.8588639,2.3534734,bar
Terres de Café,48.8598365,2.3549664,cafe
Krash,48.8602579,2.3534535,swingerclub
Quetzal Bar,48.8572153,2.3552063,bar
La Chope,48.8930497,2.3270331,bar
Unknown,48.8913288,2.326708,post_box
La Poste,48.8914233,2.3266744,post_office
McDonald's,48.8875232,2.3252141,fast_food
Conservatoire municipal Claude Debussy - Site de la Jonquière,48.8947523,2.3190527,arts_centre
Pharmacie Renoul Georgel,48.8933844,2.3277691,pharmacy
Le Championnet,48.893235,2.3279355,cafe
Kempo Seat,48.8934347,2.3277889,fast_food
Unknown,48.8956591,2.3766927,kindergarten
Unknown,48.895389,2.374493,nursery
Unknown,48.874355,2.3204594,toilets
Petits Champs,48.8631838,2.3399062,parking_entrance
Pharmacie de la Mairie,48.8576477,2.3541855,pharmacy
Pharmacie du Village,48.8591061,2.3538958,pharmacy
Unknown,48.8844916,2.3446667,toilets
Unknown,48.8841058,2.352188,toilets
LCL,48.8830031,2.2877361,bank
Pharmacie Baini,48.883055,2.2877856,pharmacy
Pharmacie de Paris,48.8853973,2.2907825,pharmacy
Porte de Champeret,48.8854539,2.2915179,taxi
Unknown,48.8943779,2.3140838,post_box
La Piazza,48.8343459,2.306018,restaurant
Chai 33,48.8331731,2.386445,restaurant
Hippopotamus,48.8330618,2.3862895,restaurant
The Frog,48.8329893,2.3861988,pub
Unknown,48.8345297,2.3968512,post_box
Unknown,48.8333803,2.3954357,post_box
Unknown,48.8901166,2.3035132,taxi
Le Poncelet,48.8803159,2.2995227,restaurant
Unknown,48.8853705,2.2979112,post_box
Unknown,48.877762,2.3937118,post_box
L'Entracte,48.8333091,2.354604,cafe
Opéra Bastille,48.8493264,2.3715393,parking
Le Bloc,48.8890782,2.3179496,cafe
Le Cygne,48.8335514,2.3631088,cafe
Sukoshi,48.8330119,2.3635033,restaurant
Village Tao Tao,48.83228,2.3612312,restaurant
3 Pièces Cuisine,48.8829327,2.3181031,pub
Crêperie Paris Breizh,48.8319327,2.35821,restaurant
Unknown,48.8553933,2.4000637,drinking_water
Le Saint-Claude,48.8340886,2.364756,cafe
Pharmacie Nahmani,48.8335964,2.3657803,pharmacy
Au Petit Village,48.8332913,2.3561953,restaurant
La Java,48.8703234,2.342446,bar
Culottée Café,48.8706192,2.3417574,cafe
Aux Bon Petit Plats,48.8705891,2.3420918,restaurant
Chez Marco,48.8711843,2.3417652,restaurant
Café Oscar,48.8706568,2.3426032,theatre
Marché Réunion,48.8557922,2.4008796,marketplace
Marche Belgrand,48.8648503,2.4014328,marketplace
Unknown,48.8944779,2.3476138,bicycle_parking
Unknown,48.8919564,2.3499315,bicycle_parking
Unknown,48.894316,2.350589,bicycle_parking
Unknown,48.893999,2.3494213,bicycle_parking
Unknown,48.8953235,2.3469169,bicycle_parking
Café D'italie,48.8321433,2.3547072,bar
La Place,48.8306364,2.35679,cafe
Maison Cluny,48.8505048,2.3448291,restaurant
Cadran Solaire de Dali,48.8513472,2.3459457,clock
El Sol y la Luna,48.8512989,2.3459983,restaurant
Caisse d'Épargne,48.8495797,2.3490922,bank
Crédit Mutuel,48.8345373,2.3537698,bank
Café Oz,48.8332913,2.3338394,pub
L'Alliance,48.8359124,2.3591671,cafe
Elephant,48.835295,2.3587277,restaurant
CareStore Salpétrière,48.8351716,2.3586353,pharmacy
The Green Linnet,48.8573781,2.3496561,pub
BP,48.8323948,2.3645635,fuel
Domremy,48.8324644,2.3651997,cafe
Unknown,48.8451544,2.3536617,fountain
Paris-Hanoï,48.853417,2.3799726,restaurant
Unknown,48.8565989,2.4064934,parking
Paloma,48.8723117,2.3823173,restaurant
Aki,48.8661465,2.3353287,restaurant
Au Réveil du XVème,48.8384805,2.3113686,cafe
Unknown,48.8584698,2.3501626,parking_entrance
Parking Rivoli-Sébastopol,48.8585306,2.3497199,parking_entrance
Unknown,48.8909655,2.3455335,bicycle_parking
Unknown,48.8915924,2.3445255,bicycle_parking
Unknown,48.8922151,2.3448473,bicycle_parking
Unknown,48.892342,2.3442329,bicycle_parking
Unknown,48.8903237,2.3475851,bicycle_parking
Unknown,48.8923696,2.3461179,bicycle_parking
Unknown,48.8949763,2.340806,bicycle_parking
Le Royal Palace,48.8374265,2.2970328,fast_food
Unknown,48.8375269,2.2960267,atm
La Karambole,48.8872627,2.3271868,bar
Wassana,48.8861847,2.3270688,restaurant
Restorante Verdi,48.8321878,2.3587424,restaurant
Unknown,48.8839565,2.3616059,bicycle_parking
Unknown,48.8878062,2.3599447,bicycle_parking
Unknown,48.885694,2.3658935,bicycle_parking
Unknown,48.8921012,2.3613115,bicycle_parking
Théâtre Antoine,48.8705772,2.3552836,theatre
Unknown,48.8883472,2.3506613,bicycle_parking
Unknown,48.8884256,2.352667,bicycle_parking
Unknown,48.8887069,2.3557699,bicycle_parking
Unknown,48.8886174,2.3547933,bicycle_parking
Unknown,48.8889492,2.3583941,bicycle_parking
Unknown,48.8890068,2.3581932,bicycle_parking
Unknown,48.8890356,2.35937,bicycle_parking
Unknown,48.8866274,2.3503164,bicycle_parking
Unknown,48.8858582,2.3552163,bicycle_parking
Unknown,48.8863106,2.3562395,bicycle_parking
Unknown,48.8872948,2.3560525,bicycle_parking
Unknown,48.8860661,2.3496454,bicycle_parking
Unknown,48.8863326,2.3496525,bicycle_parking
Unknown,48.8885253,2.349695,bicycle_parking
Unknown,48.8841064,2.3523128,bicycle_parking
Unknown,48.8840692,2.3517511,bicycle_parking
Unknown,48.8840496,2.3514734,bicycle_parking
Unknown,48.8896816,2.3497064,bicycle_parking
Tabac de la Place,48.8360816,2.3104043,cafe
L'Inédit Café,48.8375203,2.3917674,restaurant
Pharmacie La Fontaine,48.8528327,2.2754794,pharmacy
Unknown,48.8592448,2.2975553,post_box
Unknown,48.8846654,2.3493927,bicycle_parking
Unknown,48.8847858,2.3493953,bicycle_parking
Unknown,48.8848553,2.3493966,bicycle_parking
Unknown,48.8852745,2.3494082,bicycle_parking
Unknown,48.8851249,2.3494039,bicycle_parking
Unknown,48.8862992,2.349431,bicycle_parking
Unknown,48.8866382,2.349441,bicycle_parking
Unknown,48.8887813,2.3494769,bicycle_parking
Unknown,48.8889867,2.3494774,bicycle_parking
Unknown,48.8891003,2.349471,bicycle_parking
Unknown,48.888496,2.3494751,bicycle_parking
Unknown,48.8879597,2.3494698,bicycle_parking
Unknown,48.8898753,2.3494908,bicycle_parking
Unknown,48.8892883,2.3494808,bicycle_parking
Unknown,48.8830709,2.3383829,bicycle_parking
Unknown,48.8857611,2.3348974,bicycle_parking
Unknown,48.885471,2.3359102,motorcycle_parking
Unknown,48.8853384,2.3362555,bicycle_parking
Unknown,48.8843224,2.3382731,bicycle_parking
Unknown,48.8886961,2.339054,bicycle_parking
Unknown,48.8865079,2.3357014,bicycle_parking
Unknown,48.8885448,2.3354619,bicycle_parking
Unknown,48.888888,2.3383586,bicycle_parking
Unknown,48.8846185,2.3410664,bicycle_parking
Unknown,48.8847397,2.340348,bicycle_parking
Unknown,48.8849051,2.341844,bicycle_parking
Rosa Bonheur,48.8799811,2.3862299,bar
Unknown,48.884996,2.3604654,bicycle_parking
Unknown,48.8907575,2.3639679,bicycle_parking
Le Marigny,48.8826461,2.381379,cafe
LCL,48.8402552,2.3616054,bank
Unknown,48.8991035,2.3345843,motorcycle_parking
Unknown,48.8952692,2.3372336,bicycle_parking
Unknown,48.8962288,2.3344189,bicycle_parking
Unknown,48.8956056,2.3390791,bicycle_parking
Unknown,48.8965678,2.3386293,bicycle_parking
Unknown,48.8943468,2.340123,bicycle_parking
Unknown,48.8944382,2.3442512,bicycle_parking
L'Avenue,48.8974129,2.3292183,restaurant
Porte de Saint Ouen,48.897969,2.3288806,taxi
Le Café de Paris,48.8538691,2.3376359,restaurant
Unknown,48.8837152,2.3395692,motorcycle_parking
Unknown,48.8839842,2.341255,bicycle_parking
Unknown,48.886608,2.3452285,bicycle_parking
Unknown,48.8832217,2.349961,bicycle_parking
Unknown,48.884608,2.3469451,bicycle_parking
Unknown,48.8881364,2.3462558,bicycle_parking
Unknown,48.8890621,2.3333841,bicycle_parking
Unknown,48.8903137,2.3341373,bicycle_parking
Unknown,48.8903263,2.333037,bicycle_parking
Unknown,48.8903768,2.3369672,bicycle_parking
Unknown,48.8916416,2.3355004,bicycle_parking
Unknown,48.8908152,2.3375737,bicycle_parking
Unknown,48.8910298,2.3401121,bicycle_parking
Unknown,48.8925928,2.3355703,bicycle_parking
Unknown,48.8929572,2.3386271,bicycle_parking
Unknown,48.8922362,2.3399843,bicycle_parking
Unknown,48.8903603,2.3404123,bicycle_parking
Unknown,48.8913707,2.347268,bicycle_parking
Unknown,48.8808823,2.3404014,atm
Unknown,48.8804958,2.3402435,atm
Crédit Mutuel,48.8649004,2.4054084,bank
Opus formation,48.86611,2.405732,college
Pizza Hut,48.8696054,2.402335,restaurant
Grande Pharmacie Mortier,48.867548,2.4092194,pharmacy
BP,48.8646015,2.409893,fuel
Unknown,48.8678875,2.4087032,post_box
Unknown,48.8661368,2.4057912,post_box
Unknown,48.8603415,2.3754404,motorcycle_parking
La Poste Paris Laumière,48.883393,2.3812455,post_office
Sushi Tokyo,48.88305,2.3825427,restaurant
Hello Momo,48.883899,2.3840751,restaurant
Regalia,48.8459719,2.2775704,restaurant
Saint-Romain - Cherche-Midi,48.8470431,2.321274,bicycle_rental
Au Rendez-Vous des Amis,48.8857211,2.340554,pub
Unknown,48.853488,2.3040058,parking_entrance
Le Bout,48.8813235,2.3376448,theatre
Société Générale,48.8575059,2.3526422,atm
Végét'Halles,48.8605714,2.3454975,restaurant
Société Générale,48.8767307,2.3386266,bank
Société Générale,48.8764688,2.3326191,bank
Crédit Mutuel,48.8753496,2.3324005,bank
Unknown,48.8737695,2.2879504,post_box
Unknown,48.8451623,2.2616325,post_box
Caisse d'Épargne,48.8806791,2.3741992,bank
Unknown,48.8802404,2.2878029,post_box
Unknown,48.8807347,2.2856484,post_box
Unknown,48.8791943,2.2915367,post_box
Unknown,48.8799973,2.2878559,recycling
Unknown,48.8794483,2.2912953,recycling
Unknown,48.8789995,2.2922348,recycling
Unknown,48.8781493,2.2958405,post_box
Pharmacie des Sports,48.8809801,2.2850743,pharmacy
Les Petits Plats,48.8286382,2.3222161,restaurant
Comptoir d'Alésia,48.8291529,2.3226809,restaurant
Le Pavé,48.8590612,2.3498201,restaurant
Unknown,48.8563193,2.2715766,recycling
Unknown,48.8507007,2.2670508,post_box
Unknown,48.8493305,2.2665269,recycling
Unknown,48.8479128,2.2643748,recycling
Unknown,48.8479261,2.2642813,post_box
LCL,48.8789432,2.3031398,bank
LCL,48.8789553,2.3031819,atm
SG,48.8815632,2.3004421,bank
Unknown,48.881611,2.300461,atm
Pharmacie Courcelles - Demours,48.883307,2.299164,pharmacy
BNP Paribas,48.8843768,2.2976591,bank
Maréchal Juin,48.8844761,2.2976487,taxi
CCF,48.885527,2.296979,bank
SG,48.8849716,2.2982725,bank
LCL,48.884675,2.298153,bank
Société Générale,48.8849387,2.2983825,atm
Unknown,48.8847109,2.2983435,recycling
Unknown,48.8901165,2.3611446,bicycle_parking
La Rimaudière,48.8768016,2.3394255,restaurant
Unknown,48.876866,2.3356326,atm
Crédit Agricole,48.8773919,2.3395256,bank
Unknown,48.8783479,2.2940749,post_box
Unknown,48.8610398,2.3188999,parking_entrance
Parking Montparnasse Raspail,48.8414255,2.3316921,parking_entrance
Unknown,48.8411654,2.3324666,parking_entrance
Unknown,48.8574335,2.3003649,post_box
Unknown,48.8603949,2.2955478,post_box
Unknown,48.8608229,2.3010496,recycling
Unknown,48.8560924,2.3046935,post_box
Unknown,48.8584436,2.3037809,taxi
Unknown,48.8583176,2.3038374,recycling
Unknown,48.8586338,2.3034705,post_box
Les Enfants terribles,48.8627214,2.379454,cafe
Orange Mécanique,48.8671328,2.3755972,bar
TotalEnergies,48.8263743,2.3872012,fuel
Khun Akorn,48.8496002,2.3981379,restaurant
Centre Marc Bloch,48.854196,2.4019145,community_centre
Bluebird,48.8513139,2.3817098,bar
Café Titon,48.8528829,2.386422,restaurant
Gül,48.8524348,2.3887428,fast_food
Mim's,48.8493781,2.3785737,fast_food
Fleur d'Asie,48.8517362,2.3993171,restaurant
Espace Hattori,48.8512398,2.392884,arts_centre
Lin Délices,48.8505337,2.3926635,fast_food
Les Trois Frères,48.8469451,2.385023,cafe
Le Carreau,48.8652165,2.3628691,restaurant
Le Puy des Arts,48.8648026,2.355226,cafe
Royal Beaubourg,48.8649345,2.3552934,bar
Horiz,48.8646002,2.3569597,restaurant
Temple Céleste,48.8650527,2.3569244,restaurant
Le Marais Restaurant Paris,48.8651093,2.3539854,bar
Unknown,48.8623935,2.3593935,atm
Unknown,48.8529835,2.3827848,atm
Unknown,48.8499264,2.374821,atm
La Banque Postale,48.8570725,2.3615477,atm
Unknown,48.823991,2.3632719,atm
Unknown,48.8470031,2.3813757,atm
La Banque Postale,48.8517886,2.3889465,atm
Unknown,48.8523104,2.4012993,atm
Tokyo Yaki,48.8276417,2.3303431,fast_food
Asahi,48.8289613,2.3298869,restaurant
Sushi,48.8289266,2.3293153,restaurant
Le Florissant,48.8289244,2.3329403,restaurant
La Banque Postale,48.831953,2.3307976,atm
pharmacie traditionnelle chinoise,48.8735594,2.3798822,pharmacy
La Vielleuse,48.8720785,2.3773809,cafe
Association Chinois de France – Français de Chine,48.8723513,2.3801688,social_facility
Aux Folies,48.872264,2.3780426,cafe
Pacifique,48.873054,2.3796868,restaurant
Unknown,48.8405453,2.3620939,post_box
Unknown,48.8402568,2.3634668,post_box
Unknown,48.8453908,2.3674378,recycling
Unknown,48.8520045,2.369828,post_box
Unknown,48.8466424,2.3872245,recycling
Pizzeria Taormina Convention,48.837631,2.297421,restaurant
Le Brazza,48.8383289,2.2982482,pub
CIC,48.8384262,2.2988961,bank
La Renaissance,48.895866,2.3396928,restaurant
Parking Reuilly-Diderot,48.8463168,2.3872077,parking
Chez Camille,48.8485516,2.3780692,restaurant
Unknown,48.8589811,2.2770478,post_box
Police nationale,48.8577179,2.2773092,police
Unknown,48.8575488,2.2769314,recycling
Unknown,48.8652654,2.2904857,post_box
Police nationale,48.8638302,2.2764451,police
Police nationale,48.884169,2.322376,police
BRED,48.8841082,2.3224492,bank
Police nationale,48.8433511,2.276832,police
Rent-A-Car,48.878383,2.3326873,car_rental
Le Clos Y,48.8429862,2.3209463,restaurant
Unknown,48.8375262,2.2967649,atm
Unknown,48.8378829,2.2974164,atm
Crédit Mutuel,48.8379252,2.2975063,bank
Crédit Agricole,48.8386614,2.2988499,bank
Unknown,48.8386443,2.2988125,atm
CIC,48.8388963,2.2993041,bank
Crédit Agricole,48.8807958,2.3003045,bank
Pharmacie Emrik,48.8812543,2.300208,pharmacy
Préfecture de police,48.875536,2.3042932,police
Unknown,48.8849745,2.3794271,post_box
Unknown,48.8858346,2.3758518,toilets
Unknown,48.8734883,2.3899989,recycling
Unknown,48.8852235,2.3791945,post_box
Unknown,48.8314088,2.3488132,bicycle_parking
Le Lescot,48.8753301,2.3889995,bar
Le Mayflower,48.8451034,2.3492463,bar
L'ecurie,48.8472622,2.3480956,bar
Le Piano Vache,48.8473039,2.3476898,pub
Le Melocoton,48.8470809,2.3486564,pub
Police Judiciaire - Brigade Criminelle - Brigade des Stupéfiants,48.8553731,2.3435125,police
Unknown,48.8556857,2.3428631,parking_entrance
Unknown,48.855824,2.3429077,parking_entrance
Le Caveau du Palais,48.8565275,2.3420348,restaurant
La Rose de France,48.8568716,2.3421327,restaurant
Restaurant Paul,48.8563025,2.3422929,restaurant
Ma Salle à Manger,48.8569225,2.3418197,restaurant
Unknown,48.8594678,2.3441793,parking_entrance
La Cantine des Tontons,48.8333497,2.2983671,restaurant
Les Tontons,48.8319427,2.3029584,restaurant
Le Zimmer,48.8577895,2.3468656,cafe
CIC,48.8590591,2.3475385,atm
Tiki playa,48.859248,2.3476222,pub
CIC,48.8591202,2.3475207,bank
L'Excuse,48.8595487,2.3473689,cafe
Les Deux Palais,48.8551632,2.3460347,cafe
Unknown,48.8552141,2.3463416,parking_entrance
CIC,48.8529342,2.343631,bank
Les Tours de Notre-Dame,48.853629,2.3494187,cafe
Unknown,48.8542243,2.3500208,bureau_de_change
Au Vieux Paris d'Arcole,48.854202,2.3503178,restaurant
Delhicious,48.8601397,2.3451638,restaurant
Ristorante Tavola Calda,48.8604674,2.3454225,restaurant
McDonald's,48.8593448,2.3461106,fast_food
Paris Châtelet,48.8594808,2.3467106,post_office
La Banque Postale,48.8595507,2.3467483,atm
Café Vigouroux,48.8597328,2.3469632,cafe
Upper Café,48.8599682,2.3474227,cafe
Au Diable Des Lombards,48.8599282,2.3475154,bar
Sunside Sunset,48.8598645,2.3477284,nightclub
Le Baiser Salé,48.8598453,2.3478047,nightclub
Sama Beyrouth,48.8598999,2.3482192,fast_food
Au Cœur Couronné,48.8603615,2.3475833,cafe
McDonald's,48.8610121,2.3482188,fast_food
Café Rive Droite,48.860847,2.3488026,restaurant
Quick,48.8602015,2.3488661,fast_food
Bar Des Halles,48.8611004,2.3442699,restaurant
Pharmacie du Pont Neuf,48.8600139,2.3442832,pharmacy
Unknown,48.8844344,2.2975102,post_box
Aprium,48.8844473,2.296777,pharmacy
Unknown,48.8778687,2.2840936,post_box
Unknown,48.8789747,2.2877114,post_box
Midory,48.8612791,2.3423684,restaurant
La Taverne de l'Arbre Sec,48.86134,2.342658,restaurant
La Renommée des Herbes Cuites,48.8612719,2.343211,restaurant
Au Chien qui Fume,48.8613541,2.3448441,restaurant
Loup,48.8639344,2.342597,restaurant
Nelson's,48.8636804,2.343122,restaurant
Shanghaï Hang-Tcheou,48.8602965,2.341854,restaurant
Café du Pont Neuf,48.8588694,2.3415282,restaurant
Saint-Germain l'Auxerrois,48.859699,2.3406358,parking_entrance
Unknown,48.860048,2.3408124,parking_entrance
Adrienne Bar,48.8608773,2.3423534,bar
Unknown,48.8590825,2.3432745,parking_entrance
BNP Paribas,48.8386703,2.2822723,bank
Pharmacie Beaubourg,48.8616909,2.351843,pharmacy
Unknown,48.8607963,2.3320318,clock
Unknown,48.8605443,2.3377901,clock
L'Oratoire,48.8617534,2.3405848,bar
Unknown,48.8617157,2.3404593,post_box
Café Ruc,48.8631557,2.3352468,cafe
Unknown,48.8625534,2.3362553,post_box
Le Cabaret,48.8624042,2.3372656,nightclub
Le Louvre Parking,48.8620104,2.3390904,parking
Le Thermidor,48.8622902,2.3393649,restaurant
Le petit St Honoré,48.8621103,2.3398733,restaurant
Palais Royal Hong-Kong,48.8622685,2.3398888,restaurant
Louise Café,48.862605,2.3395217,cafe
Maison des Associations du Ie,48.8620448,2.3412413,community_centre
Claus,48.8624616,2.3405468,cafe
Aux Deux Écus,48.8626977,2.3414846,restaurant
Aux Trois Maillets,48.8615141,2.3488592,cafe
Sébastopol,48.8611512,2.3495492,parking_entrance
Le Relais Du Vin,48.8619643,2.3491461,bar
Joe Allen,48.8635177,2.3491047,restaurant
Trantranzai,48.8631582,2.3498973,restaurant
Pharmacie de Suffren,48.8513862,2.3002551,pharmacy
Unknown,48.8509539,2.2949724,post_box
Unknown,48.8489561,2.2943248,post_box
Le Petit Bouillon Pharamond,48.8630052,2.3485011,restaurant
Comptoir de la Gastronomie,48.8644966,2.3454436,restaurant
Le Florida (Paris),48.8633177,2.3461885,bar
La Perla,48.8634417,2.3462535,restaurant
Tea House,48.8635035,2.3462812,cafe
Pharmacie Saint-Eustache,48.8641153,2.3464533,pharmacy
L'Escargot Montorgueil,48.8641678,2.3467038,restaurant
L'Imprimerie,48.8640959,2.3415983,cafe
Postiche,48.8640954,2.3438023,restaurant
Caisse d'Épargne,48.8647338,2.3425888,bank
Caisse d'Épargne,48.8648758,2.3426855,bank
Casa Festa,48.8625897,2.34081,restaurant
Brasserie de la Bourse,48.8629462,2.3411925,cafe
BNP Paribas,48.8630681,2.3412176,bank
BNP Paribas,48.8630754,2.341335,atm
Pharmacie de la Banque,48.8639239,2.3401572,pharmacy
CIC,48.8634071,2.3418915,bank
Basilic Thaï,48.8647612,2.3406523,restaurant
Comptoir Montevideo,48.8646538,2.3408552,restaurant
Au Cabanon,48.864489,2.3404697,restaurant
Bistrot Victoires,48.8655554,2.3403846,restaurant
CIC,48.8660175,2.3407258,bank
A Casaluna,48.8660743,2.3390538,restaurant
Table d'Hôte du Palais Royal,48.8661019,2.3389239,restaurant
Café de la Comédie,48.8629745,2.3357764,cafe
Unknown,48.863538,2.335525,clock
L'Incroyable,48.86502,2.3366293,restaurant
Le Festival,48.8656093,2.3369261,restaurant
Bar de l'Entracte,48.8663915,2.3375294,restaurant
Pharmacie des Petits Champs,48.8664907,2.3376599,pharmacy
Café Palais Royal,48.8627841,2.3376609,cafe
Pharmacie Bruno Fellous,48.8671932,2.3347289,pharmacy
Pho 14,48.8652957,2.3360734,restaurant
Pharmacie Opéra-Victoire,48.8669846,2.3362939,pharmacy
Unknown,48.8658097,2.3337037,parking_entrance
Pyramides,48.8661,2.3337438,parking_entrance
Le Royal Opéra,48.8660278,2.3340077,restaurant
Unknown,48.8663175,2.3340111,clock
Salon du Fromage Hisada,48.8662823,2.3370766,cafe
Sapporo,48.8663406,2.3354494,restaurant
Higuma,48.8666007,2.3357728,restaurant
Udon Jubey,48.866459,2.3355096,restaurant
Hakata,48.8671492,2.3349258,restaurant
Ryo,48.8669848,2.3350615,restaurant
The alley,48.8671751,2.3348125,cafe
Café Maru,48.8672082,2.3346637,cafe
Sanukiya,48.8646927,2.3338041,restaurant
Pharmacie des Pyramides,48.8647572,2.3326227,pharmacy
Parking Pyramides,48.8652752,2.3332993,parking_entrance
Au Bistro,48.8660599,2.3312884,restaurant
N & N formation anglais,48.8479902,2.2938111,language_school
Clinique Vétérinaire,48.8402691,2.2839825,veterinary
Unknown,48.8380558,2.2819596,disused
Koyuki,48.8447867,2.2964549,restaurant
Akasaka (아가사가),48.8475825,2.2858441,restaurant
C'est mon donut,48.8471365,2.2846392,fast_food
O Fil Rouge,48.8481825,2.2870109,restaurant
Echizen Soba Togo,48.86593,2.3325216,restaurant
Le Pain Quotidien,48.8663779,2.3317318,cafe
L'ecluse Saint-Honoré,48.8669595,2.3323778,bar
Le Zinc d'Honoré,48.8671049,2.3324513,cafe
Maison Popeille,48.8670401,2.3324272,restaurant
Le Passage Saint Honoré,48.8676684,2.331687,restaurant
Charly Bun's,48.8671718,2.3324983,restaurant
Fuxia,48.8675155,2.3322637,restaurant
Razowski's,48.8672699,2.3325679,cafe
Big Fernand,48.8674622,2.3325601,fast_food
SG,48.8656465,2.3302994,bank
Société Générale,48.8656453,2.3303694,atm
Commissariat central,48.8669041,2.3315149,police
École maternelle,48.8667074,2.3326398,school
Le Terroir,48.8678727,2.3316533,restaurant
Kinugawa Vendôme,48.8655217,2.3289587,restaurant
Rivoli Park,48.864819,2.3292321,restaurant
Le Rubis,48.8661799,2.3313738,bar
Vendôme,48.8677297,2.3303206,parking_entrance
Le Florentin,48.86759,2.3244576,cafe
Café Mademoiselle,48.8687717,2.3252969,cafe
Le Pub Saint-Hillaire,48.8480996,2.3469127,pub
Unknown,48.8487594,2.3777621,bicycle_parking
Unknown,48.8502491,2.3773781,bicycle_parking
Cheminée,48.8454405,2.288302,restaurant
Yako,48.8517565,2.2895333,restaurant
Au Royal Couscous,48.8527624,2.2872737,restaurant
Le Ventadour,48.8673784,2.3345368,cafe
Société Générale,48.8743117,2.3760048,bank
Au Gagne Petit,48.8721807,2.3777353,pharmacy
Tang Gourmet,48.8722076,2.3778604,fast_food
Le Rendez-Vous,48.8731153,2.3763212,cafe
École Élémentaire Simon Bolivar,48.8763168,2.3770933,school
Lauretta,48.8741795,2.3751222,bar
Le Pastel,48.8687898,2.3338477,restaurant
Le Gaillon,48.868971,2.3345642,bar
Laïzé Opera,48.8683394,2.3357264,cafe
ALMA,48.8684015,2.3357877,cafe
Théâtre de la Michodière,48.8693146,2.3347338,theatre
Le Corner café,48.869811,2.3346634,restaurant
Unknown,48.8696005,2.3358328,post_box
Unknown,48.8695636,2.3360181,clock
Les cafés San José,48.86701,2.3360061,cafe
Yi Ping,48.8671966,2.3360656,restaurant
Gubine,48.8673167,2.3360997,restaurant
Machi Machi,48.8672968,2.336706,cafe
Sushi B,48.8677062,2.337428,restaurant
La Fontaine Gaillon,48.8690695,2.3343056,restaurant
Unknown,48.8780321,2.3688836,doctors
Bistrot Régent Opéra,48.8702356,2.3350586,restaurant
Chez Xala,48.8703154,2.3358656,bar
Hippopotamus,48.8707437,2.333885,restaurant
Unknown,48.8670925,2.3387264,fountain
Centre dentaire Bourse,48.8690399,2.338754,dentist
Le Mexikk,48.8704283,2.3371521,cafe
Le Gramont,48.8712809,2.337147,cafe
Le Sâotico,48.8705949,2.3395281,restaurant
Café Le Marivaux,48.8714078,2.3378085,bar
Unknown,48.8714851,2.337797,post_box
A. Noste,48.8691957,2.3392086,bar
Mori Venice Bar,48.8690729,2.3399905,restaurant
Le Bistrot des Colonnes,48.8691872,2.3393294,restaurant
Le Louis d'Or,48.8693708,2.339716,bar
Le Vaudeville,48.8692514,2.3401242,restaurant
Unknown,48.8626067,2.3877616,bicycle_parking
Au P'tit Paname,48.8716597,2.3407937,restaurant
Le Cardinal,48.8716938,2.33972,bar
Unknown,48.8717356,2.3405719,atm
Chez Carmen,48.8714764,2.3413564,bar
Unknown,48.8696799,2.3415731,post_box
LCL,48.8697491,2.3403685,bank
Unknown,48.8696136,2.3403891,atm
BNP Paribas,48.8695691,2.3402609,bank
Unknown,48.8688297,2.3421626,restaurant
Société Générale,48.8686859,2.3420376,atm
Liza,48.8675928,2.3409167,restaurant
Le Bougainville,48.8664997,2.3400225,restaurant
Société Générale Bourse,48.8686697,2.3421738,bank
La Bourse et la Vie,48.8676188,2.3394786,restaurant
Cali Sisters,48.868307,2.3417316,restaurant
Le Petit Vendôme,48.8687804,2.3297526,cafe
Crédit Agricole,48.8688935,2.3334536,atm
Unknown,48.8700485,2.3293463,toilets
La Pépinière Théâtre,48.8685956,2.3322485,theatre
Five Guys,48.8703357,2.3320039,fast_food
BNP Paribas,48.8689537,2.3327977,atm
BNP Paribas,48.868934,2.3327609,bank
Café du Cadran,48.8690244,2.3325864,cafe
Le Bab Opéra (Ex : Le Dock Bar),48.870545,2.3340538,bar
Le Bistrot Du Croissant,48.8691969,2.3433101,restaurant
